City,Description jour,Timezone,Latitude,Longitude,Date,Current time,Max_Température,Min_Température,Current temperature,Humidité,Precipitation,Neige,Neige_densité,Vent_rafale,Vent_vitesse,Vent_direction,Pression,Nuage,Visibilité,Solar radiation,Energy_solaire,Soleil_coucher,Alert risk,Description,Weather conditions,Weather alerts,Alertes_description,Vitesse_vent
"Arrabury Rd, Durham QLD 4481, Australia",Similar temperatures continuing with no rain expected.,Australia/Brisbane,-26.84124,141.10708,2023-07-07,07:00:00,17.7,10.2,10.2,43.2,0.0,0.0,0.0,40.0,18.0,226.1,1021.5,0.0,,176.9,15.3,17:55:58,10.0,Clear conditions throughout the day.,Clear,,,18.0
"عدادو, عذاذو, جلجدود, الصومال",Similar temperatures continuing with no rain expected.,Africa/Mogadishu,6.14462,46.62496,2023-07-07,00:00:00,33.6,22.8,27.0,48.9,0.1,0.0,0.0,63.0,45.4,213.9,1012.8,57.6,,219.2,19.0,18:12:20,10.0,Partly cloudy throughout the day.,Partially cloudy,,,45.4
"Apalachicola, FL, United States",Similar temperatures continuing with a chance of rain multiple days.,America/New_York,29.7255,-84.987,2023-07-06,17:10:00,33.3,24.4,31.9,76.7,2.097,0.0,0.0,20.5,29.5,273.6,1015.6,11.2,,289.5,25.1,20:44:09,75.0,Clear conditions throughout the day with strong storms possible.,Rain,,,29.5
"Avenida Avelino Vieira, Arapoti - PR, 84990-000, Brasil",Similar temperatures continuing with a chance of rain Wednesday & Thursday.,America/Sao_Paulo,-24.14344,-49.82284,2023-07-06,18:00:00,19.8,9.9,13.8,73.1,0.0,0.0,0.0,16.2,11.5,2.3,1019.0,1.7,,184.3,16.0,17:45:01,10.0,Clear conditions throughout the day.,Clear,,,11.5
"Merzbrück, 52146 Würselen, Deutschland",Similar temperatures continuing with a chance of rain multiple days.,Europe/Berlin,50.82387,6.19842,2023-07-06,23:07:00,22.1,10.7,16.6,67.2,0.0,0.0,0.0,34.9,16.6,239.3,1017.7,32.8,,276.3,23.7,21:49:55,10.0,Partly cloudy throughout the day.,Partially cloudy,,,16.6
"Arraias, TO, Brasil",Similar temperatures continuing with no rain expected.,America/Araguaina,-12.9303,-46.93791,2023-07-06,18:00:00,30.4,13.6,23.2,39.4,0.0,0.0,0.0,21.6,11.5,131.3,1016.7,25.2,,234.3,20.3,17:54:18,10.0,Partly cloudy throughout the day.,Partially cloudy,,,11.5
"Arandka, Ferozepur Jhirka, HR, India",Similar temperatures continuing with a chance of rain multiple days.,Asia/Kolkata,27.96734,76.94333,2023-07-07,02:40:02,36.5,27.2,29.6,65.2,2.8,0.0,0.0,36.4,31.0,89.9,1000.7,83.6,,160.8,13.7,19:22:21,30.0,Partly cloudy throughout the day with storms possible.,"Rain, Partially cloudy",,,31.0
"Aalborg, Nordjylland, Danmark",Similar temperatures continuing with a chance of rain Tuesday & Wednesday.,Europe/Copenhagen,57.0494,9.9163,2023-07-06,23:10:00,18.0,13.0,13.9,83.3,2.6,0.0,0.0,54.0,42.5,261.5,1007.6,81.8,,178.5,15.3,22:14:13,10.0,Partly cloudy throughout the day with a chance of rain throughout the day.,"Rain, Partially cloudy",,,42.5
"Malå, Västerbottens län, Sverige",Similar temperatures continuing with a chance of rain tomorrow & Saturday.,Europe/Stockholm,65.19141,18.72574,2023-07-06,22:50:00,19.6,6.9,15.0,66.7,0.0,0.0,0.0,25.9,18.0,140.9,1012.0,48.2,,246.1,21.2,23:30:04,10.0,Partly cloudy throughout the day.,Partially cloudy,,,18.0
"المدينة الصناعية, العين, الإمارات العربية المتحدة",Similar temperatures continuing with no rain expected.,Asia/Dubai,24.06337,55.63345,2023-07-07,01:00:00,46.6,33.8,35.0,23.2,0.0,0.0,0.0,34.2,29.5,134.1,998.0,77.4,,321.7,27.9,19:09:12,10.0,Partly cloudy throughout the day.,Partially cloudy,,,29.5
"Anaco, Anzoátegui, República Bolivariana De Venezuela",Similar temperatures continuing with a chance of rain multiple days.,America/Caracas,9.42715,-64.4757,2023-07-06,17:00:00,34.3,23.4,33.0,58.5,0.0,0.0,0.0,44.6,37.1,81.2,1012.5,51.0,,309.4,26.8,18:42:17,10.0,Partly cloudy throughout the day.,Partially cloudy,,,37.1
"Анапа, Южный федеральный округ, Россия",Similar temperatures continuing with a chance of rain multiple days.,Europe/Moscow,44.9303,37.3227,2023-07-07,00:00:00,30.8,24.9,24.0,53.9,0.0,0.0,0.0,36.7,20.2,138.1,1006.5,24.6,,326.3,28.3,20:19:12,30.0,Partly cloudy throughout the day with storms possible.,"Rain, Partially cloudy",,,20.2
"Tirstrupvej, 8240 Aarhus, Danmark",Similar temperatures continuing with a chance of rain Tuesday & Wednesday.,Europe/Copenhagen,56.1976,10.2339,2023-07-06,23:00:00,18.7,12.8,13.3,75.3,2.0,0.0,0.0,56.9,27.7,248.1,1009.7,74.7,,195.6,16.9,22:06:29,10.0,Partly cloudy throughout the day with a chance of rain throughout the day.,"Rain, Partially cloudy",,,27.7
"Altay, Ankara, Türkiye",Similar temperatures continuing with no rain expected.,Europe/Istanbul,39.969,32.6488,2023-07-07,23:50:00,32.3,20.1,24.9,44.3,0.2,0.0,0.0,34.2,19.8,337.0,1009.3,49.8,,344.0,29.8,20:20:53,10.0,Partly cloudy throughout the day.,Partially cloudy,,,19.8
"Allah Valley Dr, 9512 Surallah, Philippines",Similar temperatures continuing with a chance of rain multiple days.,Asia/Manila,6.38005,124.7508,2023-07-07,05:00:00,33.1,22.7,22.7,80.9,3.1,0.0,0.0,6.5,5.8,356.9,1010.5,47.3,,285.6,24.6,18:00:12,60.0,Partly cloudy throughout the day with storms possible.,"Rain, Partially cloudy",,,5.8
"Araxá, MG, Brasil",Similar temperatures continuing with no rain expected.,America/Sao_Paulo,-19.5941,-46.9409,2023-07-06,18:00:00,24.0,8.8,19.0,57.6,0.0,0.0,0.0,20.5,20.5,85.4,1020.8,10.5,,206.7,17.8,17:42:17,10.0,Clear conditions throughout the day.,Clear,,,20.5
"الغيضة, اليمن",Similar temperatures continuing with no rain expected.,Asia/Aden,16.52125,52.70948,2023-07-07,00:00:00,27.0,24.6,25.7,88.9,0.7,0.0,0.0,30.6,29.5,92.1,1002.5,90.9,,192.7,16.6,18:06:13,15.0,Cloudy skies throughout the day.,Overcast,,,29.5
"Quetzaltenango, Guatemala",Similar temperatures continuing with a chance of rain multiple days.,America/Guatemala,14.8209,-91.5166,2023-07-06,15:00:00,22.0,8.0,20.0,87.6,5.2,0.0,0.0,12.2,10.8,61.4,1015.3,71.7,,143.4,12.3,18:40:00,60.0,Partly cloudy throughout the day with storms possible.,"Rain, Partially cloudy",,,10.8
"Абакан, Сибирский федеральный округ, Россия","Warming up with a chance of rain tomorrow, Sunday & Monday.",Asia/Krasnoyarsk,53.7204,91.4442,2023-07-07,04:00:00,28.6,15.2,18.0,62.4,1.3,0.0,0.0,16.9,16.6,347.7,1006.1,69.9,,309.8,26.9,21:24:34,30.0,Partly cloudy throughout the day with storms possible.,"Rain, Partially cloudy",,,16.6
"Carrer d'Albacete, 08225 Terrassa (Barcelona), Espanya",Similar temperatures continuing with a chance of rain tomorrow & Saturday.,Europe/Madrid,41.57947,2.00521,2023-07-06,23:06:35,29.7,19.2,22.9,67.6,1.6,0.0,0.0,28.4,21.8,123.7,1015.8,31.8,,196.9,17.1,21:28:55,30.0,Partly cloudy throughout the day with storms possible.,"Rain, Partially cloudy",Moderate rain warning,One-hour accumulated precipitation: 20 mm. Persistencia de chubascos intensos.,21.8
"Abadan, Ankara, Türkiye",Warming up with no rain expected.,Europe/Istanbul,40.1158,32.8663,2023-07-07,23:50:00,30.6,17.9,23.2,47.2,0.2,0.0,0.0,40.0,18.0,343.1,1010.0,37.6,,344.0,29.8,20:20:28,10.0,Partly cloudy throughout the day.,Partially cloudy,,,18.0
"Allentown, PA, United States","Similar temperatures continuing with a chance of rain tomorrow, Sunday & Monday.",America/New_York,40.6026,-75.4703,2023-07-06,17:10:00,31.7,21.6,30.1,74.2,3.135,0.0,0.0,18.4,12.2,154.9,1013.7,32.2,,238.4,20.6,20:35:34,30.0,Becoming cloudy in the afternoon with storms possible.,"Rain, Partially cloudy",Air Quality Alert,"...AIR QUALITY ALERT IS IN EFFECT FOR THURSDAY JULY 6...
The Pennsylvania Department of Environmental Protection has
issued a code orange air quality alert Thursday for The Lehigh
Valley/Berks County area.
A code orange air quality alert means that air pollution
concentrations within the region may become unhealthy for
sensitive groups. Sensitive groups include children...people
suffering from asthma... heart disease or other lung
diseases...and the elderly. The effects of air pollution can
be minimized by avoiding strenuous activity or exercise outdoors.
For more information on ground-level ozone and fine
particles...visit http://www.depweb.state.pa.us",12.2
"Abalang, Um Rawaba, Sudan",Similar temperatures continuing with a chance of rain multiple days.,Africa/Khartoum,12.68611,31.39082,2023-07-06,23:00:00,37.2,28.5,28.5,43.8,0.1,0.0,0.0,38.5,36.4,197.0,1008.1,71.8,,281.2,24.2,18:24:31,30.0,Partly cloudy throughout the day with storms possible.,"Rain, Partially cloudy",,,36.4
"Abingdon Downs, QLD 4892, Australia",Similar temperatures continuing with no rain expected.,Australia/Brisbane,-17.86265,143.70203,2023-07-07,07:00:00,31.0,17.7,17.7,39.6,0.0,0.0,0.0,42.8,20.5,148.2,1015.8,47.4,,214.4,18.6,18:03:04,10.0,Partly cloudy throughout the day.,Partially cloudy,,,20.5
"Alpha, NJ, United States","Similar temperatures continuing with a chance of rain tomorrow, Sunday & Monday.",America/New_York,40.6662,-75.1602,2023-07-06,17:05:00,31.6,21.3,28.5,73.0,3.424,0.0,0.0,31.7,15.0,205.0,1013.2,30.0,,143.8,12.3,20:34:32,30.0,Partly cloudy throughout the day with storms possible.,"Rain, Partially cloudy",Air Quality Alert,"...AIR QUALITY ALERT IS IN EFFECT FOR THURSDAY JULY 6...
The New Jersey Department of Environmental Protection has
issued a code orange air quality alert Thursday for Sussex and
Warren Counties.
A code orange air quality alert means that air pollution
concentrations within the region may become unhealthy for
sensitive groups. Sensitive groups include children...people
suffering from asthma... heart disease or other lung
diseases...and the elderly. The effects of air pollution can
be minimized by avoiding strenuous activity or exercise outdoors.
For more information on ground-level ozone and fine
particles...visit http://www.state.nj.us/dep/",15.0
"Abilene, TX, United States",Similar temperatures continuing with no rain expected.,America/Chicago,32.4492,-99.7414,2023-07-06,16:15:00,34.5,24.7,28.2,59.5,1.786,0.0,0.0,33.5,20.5,137.7,1012.4,20.2,,195.8,16.9,20:49:43,30.0,Becoming cloudy in the afternoon with storms possible.,"Rain, Partially cloudy",,,20.5
"Abidjan, Côte d'Ivoire",Similar temperatures continuing with a chance of rain multiple days.,Africa/Abidjan,5.32691,-4.02173,2023-07-06,21:00:00,29.0,24.9,25.0,94.3,11.3,0.0,,28.1,27.7,242.5,1012.6,51.7,,242.6,20.9,18:33:26,10.0,Partly cloudy throughout the day with a chance of rain throughout the day.,"Rain, Partially cloudy",,,27.7
"Ambler, PA, United States","Similar temperatures continuing with a chance of rain tomorrow, Sunday & Monday.",America/New_York,40.1556,-75.2197,2023-07-06,17:03:00,32.8,20.2,32.3,74.2,0.3,0.0,0.0,18.4,14.9,152.8,1013.6,28.2,,264.5,22.7,20:33:09,60.0,Partly cloudy throughout the day.,Partially cloudy,,,14.9
"Albina, Suriname",Similar temperatures continuing with a chance of rain multiple days.,America/Paramaribo,5.50036,-54.0617,2023-07-06,18:00:00,30.9,22.4,25.5,89.9,6.2,0.0,0.0,35.3,7.6,103.7,1013.2,78.8,,153.8,13.1,18:53:54,60.0,Partly cloudy throughout the day with storms possible.,"Rain, Partially cloudy",,,7.6
"Aboisso, Comoé, Côte d'Ivoire",Similar temperatures continuing with a chance of rain multiple days.,Africa/Abidjan,5.46665,-3.21751,2023-07-06,21:00:00,26.8,22.8,25.0,88.6,8.1,0.0,0.0,22.0,13.7,215.3,1013.3,72.5,,158.3,13.7,18:30:27,10.0,Partly cloudy throughout the day with a chance of rain throughout the day.,"Rain, Partially cloudy",,,13.7
"Albuquerque, NM, United States",Similar temperatures continuing with no rain expected.,America/Denver,35.0842,-106.649,2023-07-06,15:15:00,37.8,21.7,36.8,18.0,0.0,0.0,0.0,35.3,22.3,234.1,1007.0,29.9,,389.5,33.6,20:24:09,10.0,Partly cloudy throughout the day.,Partially cloudy,Heat Advisory,"...HEAT ADVISORY REMAINS IN EFFECT UNTIL 8 PM MDT THIS EVENING...
* WHAT...Temperatures up to 103 degrees expected.
* WHERE...Middle Rio Grande Valley including the Albuquerque Metro
Area.
* WHEN...Until 8 PM MDT this evening.
* IMPACTS...Hot temperatures may cause heat illnesses.
* ADDITIONAL DETAILS...The hottest temperatures will be at the
bottom of the Rio Grande Valley with slightly cooler readings near
the foothills.",22.3
"Aberdeen, SD, United States",Similar temperatures continuing with a chance of rain tomorrow.,America/Chicago,45.45909,-98.48691,2023-07-06,16:15:00,25.6,6.8,25.9,65.0,0.0,0.0,0.0,33.5,22.3,182.5,1018.3,6.5,,336.2,28.8,21:24:42,10.0,Clear conditions throughout the day.,Clear,Flood Warning,"...The Flood Warning continues for the following rivers in South
Dakota...
James River At Columbia affecting Brown County.
James River near Stratford affecting Spink and Brown Counties.
.For sites with a river forecast, the forecast includes
precipitation through the next 24 hours. Any future precipitation
could affect the forecasts.
...FLOOD WARNING REMAINS IN EFFECT UNTIL FURTHER NOTICE...
* WHAT...Moderate flooding is occurring and moderate flooding is
forecast.
* WHERE...James River At Columbia.
* WHEN...Until further notice.
* IMPACTS...At 17.0 feet, Water reaches the base of the levee at the
old location of Columbia Park
* ADDITIONAL DETAILS...
- At 12:00 PM CDT Sunday the stage was 16.3 feet.
- Recent Activity...The maximum river stage in the 24 hours
ending at 12:00 PM CDT Sunday was 16.4 feet.
- Forecast...The river is expected to remain steady above flood
stage at 16.3 feet.
- Flood stage is 13.0 feet.
- http://www.weather.gov/safety/flood
&&",22.3
"Calle Abu Simbel, Villa Flores, 28983 Ciudad de Villa de Álvarez, Col, México",Similar temperatures continuing with a chance of rain multiple days.,America/Mexico_City,19.2593,-103.764,2023-07-06,14:40:00,32.1,21.4,29.0,80.3,0.8,0.0,0.0,16.2,17.6,200.1,1011.3,98.5,,229.4,20.0,19:37:16,30.0,Cloudy skies throughout the day with storms possible.,"Rain, Overcast",,,17.6
"العقيق, السعودية",Similar temperatures continuing with no rain expected.,Asia/Riyadh,20.26532,41.63435,2023-07-07,00:00:00,37.5,26.4,30.0,21.7,0.0,0.0,0.0,30.2,35.6,294.1,1006.6,77.4,,311.5,26.8,18:57:36,30.0,Partly cloudy throughout the day.,Partially cloudy,,,35.6
"Abuja, Federal Capital Territory, Nigeria",Similar temperatures continuing with a chance of rain multiple days.,Africa/Lagos,9.06344,7.46229,2023-07-06,22:00:00,30.0,22.0,26.0,83.7,1.3,0.0,0.0,8.3,14.8,235.3,1013.4,64.3,,284.5,24.6,18:53:53,30.0,Partly cloudy throughout the day with storms possible.,"Rain, Partially cloudy",,,14.8
"Albury, NSW 2640, Australia",Similar temperatures continuing with a chance of rain tomorrow.,Australia/Sydney,-36.081,146.918,2023-07-07,06:55:23,9.8,5.2,7.3,94.4,4.3,0.0,0.0,29.9,14.4,320.0,1012.7,82.5,,23.2,2.0,17:11:15,10.0,Partly cloudy throughout the day with rain.,"Rain, Partially cloudy",,,14.4
"Albany, NY, United States","Similar temperatures continuing with a chance of rain tomorrow, Sunday & Monday.",America/New_York,42.6516,-73.7552,2023-07-06,17:05:00,32.8,20.9,32.7,69.0,0.3,0.0,0.0,35.3,11.3,171.1,1013.2,39.6,,198.9,17.0,20:35:31,60.0,Becoming cloudy in the afternoon.,Partially cloudy,Heat Advisory,"...HEAT ADVISORY REMAINS IN EFFECT UNTIL 8 PM EDT THIS EVENING...
* WHAT...Heat index values between 95 and 100 degrees.
* WHERE...Much of the Hudson and Mohawk River valleys in eastern
New York and eastern Windham County in southern Vermont.
* WHEN...Until 8 PM EDT this evening.
* IMPACTS...Hot temperatures and high humidity may cause heat
illnesses to occur.",11.3
"Aberdeen, Scotland, United Kingdom",Similar temperatures continuing with a chance of rain multiple days.,Europe/London,57.14555,-2.10249,2023-07-06,21:50:00,18.0,8.0,14.0,80.0,0.2,0.0,0.0,43.2,31.7,179.1,1008.6,75.9,,286.9,24.6,22:03:02,10.0,Partly cloudy throughout the day with late afternoon rain.,"Rain, Partially cloudy",,,31.7
"Acapulco de Juárez, GRO, México",Similar temperatures continuing with a chance of rain multiple days.,America/Mexico_City,16.8495,-99.9094,2023-07-06,14:45:00,29.7,26.7,25.4,76.6,4.4,0.0,,35.6,31.7,112.7,1010.5,94.2,,179.7,15.5,19:17:17,30.0,Cloudy skies throughout the day with storms possible.,"Rain, Overcast",,,31.7
"Bellaire, MI, United States",Similar temperatures continuing with no rain expected.,America/Detroit,44.98317,-85.21027,2023-07-06,16:55:00,23.0,15.6,23.0,76.8,3.878,0.0,0.0,30.8,18.4,346.5,1013.9,67.9,,240.0,20.7,21:29:47,10.0,Partly cloudy throughout the day with rain clearing later.,"Rain, Partially cloudy",,,18.4
"Accra, Ghana",Similar temperatures continuing with no rain expected.,Africa/Accra,5.57889,-0.23261,2023-07-06,21:00:00,28.0,24.1,26.0,88.7,0.4,0.0,,31.3,25.9,202.9,1012.7,67.8,,259.3,22.5,18:18:42,10.0,Partly cloudy throughout the day with a chance of rain throughout the day.,"Rain, Partially cloudy",,,25.9
"Acandí, Colombia",Similar temperatures continuing with a chance of rain multiple days.,America/Bogota,8.50935,-77.28088,2023-07-06,16:00:00,28.4,23.5,26.5,89.8,10.9,0.0,,9.7,7.2,242.4,1009.5,90.9,,116.2,9.9,18:31:55,75.0,Cloudy skies throughout the day with strong storms possible.,"Rain, Overcast",,,7.2
"Lanzarote, Valleseco, Islas Canarias, España",Warming up with no rain expected.,Atlantic/Canary,28.0434,-15.579,2023-07-06,22:00:00,28.0,18.5,23.6,66.5,0.2,0.0,0.0,70.6,51.8,8.4,1016.1,28.6,,317.5,27.3,21:02:41,10.0,Clearing in the afternoon with rain clearing later.,"Rain, Partially cloudy",,,51.8
"Altenrhein, Thal, Sankt Gallen, Schweiz",Similar temperatures continuing with a chance of rain multiple days.,Europe/Zurich,47.4904,9.55175,2023-07-06,22:50:00,24.0,13.0,16.9,74.4,1.9,0.0,0.0,27.0,13.0,301.7,1018.8,42.0,,282.9,24.5,21:20:57,10.0,Partly cloudy throughout the day with a chance of rain throughout the day.,"Rain, Partially cloudy",,,13.0
"Alderney, Guernsey, Guernsey",Similar temperatures continuing with a chance of rain tomorrow & Saturday.,Europe/Guernsey,49.7143,-2.20523,2023-07-06,21:50:00,20.9,11.4,14.9,79.9,0.0,0.0,0.0,28.8,20.5,195.3,1016.8,29.0,,347.5,30.1,21:18:02,10.0,Partly cloudy throughout the day.,Partially cloudy,,,20.5
"Anuradhapura, North Central, Sri Lanka",Similar temperatures continuing with no rain expected.,Asia/Colombo,8.33021,80.4085,2023-07-07,03:00:00,31.4,24.6,25.3,73.8,0.9,0.0,0.0,46.8,30.6,230.0,1010.0,98.4,,181.0,15.5,18:30:54,10.0,Cloudy skies throughout the day.,Overcast,,,30.6
"Nantucket, MA, United States",Similar temperatures continuing with no rain expected.,America/New_York,41.2836,-70.0987,2023-07-06,17:00:00,23.4,18.9,23.8,95.1,0.0,0.0,0.0,29.5,16.6,208.7,1014.8,93.1,,312.8,27.3,20:16:18,10.0,Cloudy skies throughout the day.,Overcast,,,16.6
"Aguaclara, Colombia",Similar temperatures continuing with a chance of rain multiple days.,America/Bogota,3.50162,-76.23892,2023-07-06,15:00:00,29.0,16.0,27.0,82.3,15.3,0.0,0.0,6.1,11.2,66.2,1014.6,85.0,,246.0,21.2,18:19:15,30.0,Partly cloudy throughout the day with storms possible.,"Rain, Partially cloudy",,,11.2
"Arica, Arica y Parinacota, República de Chile",Similar temperatures continuing with no rain expected.,America/Santiago,-18.4785,-70.3218,2023-07-06,17:00:00,20.0,14.0,18.8,73.6,0.0,0.0,0.0,8.6,20.0,226.7,1015.2,77.8,,194.3,16.8,18:17:54,10.0,Partly cloudy throughout the day.,Partially cloudy,,,20.0
"Ascona, Ticino, Svizzera",Cooling down with a chance of rain multiple days.,Europe/Zurich,46.1543,8.77321,2023-07-06,22:20:00,24.7,17.0,19.0,74.0,2.2,0.0,0.0,20.5,15.3,241.8,1016.3,37.4,,191.7,16.5,21:18:32,30.0,Partly cloudy throughout the day with storms possible.,"Rain, Partially cloudy",,,15.3
"Avenida de la Estación, 03005 Alicante (Alicante), España",Similar temperatures continuing with no rain expected.,Europe/Madrid,38.34525,-0.49283,2023-07-06,23:00:00,29.0,25.0,26.0,74.0,0.1,0.0,0.0,33.1,22.2,77.6,1013.7,50.9,,271.5,23.4,21:28:46,15.0,Partly cloudy throughout the day with afternoon rain.,"Rain, Partially cloudy",,,22.2
"Araracuara, Colombia",Similar temperatures continuing with a chance of rain multiple days.,America/Bogota,4.17352,-72.97638,2023-07-06,15:00:00,28.5,21.8,28.0,89.1,3.8,0.0,0.0,29.2,11.2,39.2,1012.8,75.7,,157.8,13.7,18:07:20,60.0,Partly cloudy throughout the day with storms possible.,"Rain, Partially cloudy",,,11.2
"Ачинск, Сибирский федеральный округ, Россия","Warming up with a chance of rain tomorrow, Sunday & Monday.",Asia/Krasnoyarsk,56.2391,90.466,2023-07-07,04:00:00,29.7,15.3,15.5,58.1,0.0,0.0,0.0,16.2,9.0,83.4,1007.2,51.0,,311.8,26.7,21:45:14,60.0,Partly cloudy throughout the day.,Partially cloudy,,,9.0
"Arcata, CA, United States",Similar temperatures continuing with no rain expected.,America/Los_Angeles,40.8677,-124.085,2023-07-06,14:15:00,15.5,12.0,15.7,90.3,0.0,0.0,0.0,25.9,11.5,297.7,1014.6,96.3,,124.3,10.8,20:50:50,10.0,Cloudy skies throughout the day.,Overcast,,,11.5
"Xingyi, China, China",Similar temperatures continuing with a chance of rain multiple days.,Asia/Shanghai,25.0892,104.882,2023-07-07,05:00:00,30.9,20.0,20.3,81.6,1.5,0.0,0.0,23.4,15.5,177.3,1003.9,75.7,,271.0,23.5,19:54:22,60.0,Partly cloudy throughout the day with storms possible.,"Rain, Partially cloudy",,,15.5
"Atlantic City, NJ, United States",Similar temperatures continuing with a chance of rain Sunday & Monday.,America/New_York,39.3629,-74.4264,2023-07-06,17:05:00,30.9,20.7,26.7,83.0,0.0,0.0,0.0,29.5,16.0,140.9,1013.7,47.3,,286.4,24.8,20:27:31,30.0,Clearing in the afternoon.,Partially cloudy,,,16.0
"Zabol, Iran, Iran",Warming up with no rain expected.,Asia/Tehran,31.0397,61.5,2023-07-07,00:30:00,38.4,29.6,31.0,16.1,0.0,0.0,0.0,85.0,62.6,332.8,999.9,0.0,,349.1,30.3,18:31:13,10.0,Clear conditions throughout the day.,Clear,,,62.6
"Adana, Türkiye",Warming up with a chance of rain today & tomorrow.,Europe/Istanbul,36.9857,35.325,2023-07-07,23:50:00,33.2,25.1,26.0,72.4,0.0,0.0,0.0,38.2,20.2,202.0,1005.5,75.0,,300.3,26.1,20:01:20,10.0,Partly cloudy throughout the day with a chance of rain.,"Rain, Partially cloudy",,,20.2
"İzmir, Türkiye",Similar temperatures continuing with no rain expected.,Europe/Istanbul,38.4262,27.1419,2023-07-07,23:50:00,34.7,23.4,26.1,57.8,0.0,0.0,0.0,53.6,29.9,308.1,1009.3,2.1,,344.3,29.8,20:38:14,10.0,Clear conditions throughout the day.,Clear,,,29.9
"Addis Ababa, Ethiopia",Similar temperatures continuing with a chance of rain multiple days.,Africa/Addis_Ababa,9.01358,38.7629,2023-07-07,23:00:00,19.7,12.5,13.0,78.9,17.6,0.0,0.0,22.3,12.2,191.9,1016.0,60.8,,250.0,21.4,18:48:40,10.0,Partly cloudy throughout the day with a chance of rain throughout the day.,"Rain, Partially cloudy",,,12.2
"N Industrial Ln, Wayne City, IL 62895, United States",Similar temperatures continuing with a chance of rain Saturday & Sunday.,America/Chicago,38.34447,-88.60681,2023-07-06,16:10:00,29.5,20.0,28.8,79.6,0.0,0.0,0.0,25.9,14.8,324.9,1014.7,48.1,,261.1,22.6,20:21:09,30.0,Partly cloudy throughout the day.,Partially cloudy,,,14.8
"Adıyaman, Türkiye",Similar temperatures continuing with no rain expected.,Europe/Istanbul,37.7605,38.276,2023-07-07,23:50:00,39.3,25.2,38.4,36.8,0.0,0.0,0.0,31.3,14.8,219.2,1001.1,8.4,,337.5,29.3,19:51:45,10.0,Clear conditions throughout the day.,Clear,,,14.8
"Adrian, MI, United States",Similar temperatures continuing with no rain expected.,America/Detroit,41.89748,-84.03707,2023-07-06,17:06:00,28.9,20.6,28.0,80.0,6.988,0.0,0.0,31.7,18.4,302.3,1012.1,38.5,,238.3,20.5,21:14:04,30.0,Partly cloudy throughout the day with storms possible.,"Rain, Partially cloudy",,,18.4
"Aldan, PA, United States",Similar temperatures continuing with a chance of rain Sunday & Monday.,America/New_York,39.92225,-75.28715,2023-07-06,17:10:00,32.8,23.2,26.8,71.3,1.3,0.0,0.0,18.4,14.5,161.8,1013.2,42.3,,325.9,28.2,20:32:41,60.0,Becoming cloudy in the afternoon.,Partially cloudy,,,14.5
"Arandis, Erongo, Namibia",Similar temperatures continuing with no rain expected.,Africa/Windhoek,-22.4216,14.9747,2023-07-06,23:07:00,36.0,17.0,24.7,16.7,0.0,0.0,0.0,52.9,46.4,77.4,1016.7,12.8,,175.0,15.0,18:29:10,10.0,Clear conditions throughout the day.,Clear,,,46.4
"Adak Sokak, 45500, Hürriyet, Soma, Türkiye",Warming up with no rain expected.,Europe/Istanbul,39.1858,27.6208,2023-07-07,23:50:00,31.5,19.8,25.8,59.2,0.0,0.0,0.0,60.1,22.3,2.1,1011.3,9.0,,341.9,29.4,20:38:35,10.0,Clear conditions throughout the day.,Clear,,,22.3
"Adelaide, SA 5000, Australia",Similar temperatures continuing with a chance of rain tomorrow & Sunday.,Australia/Adelaide,-34.9258,138.6,2023-07-07,06:31:00,14.0,11.8,9.8,75.5,1.4,0.0,0.0,73.8,47.2,311.5,1012.8,36.9,,112.1,9.7,17:17:30,10.0,Partly cloudy throughout the day with early morning rain.,"Rain, Partially cloudy",,,47.2
"Ardmore, Excello, MO, United States",Similar temperatures continuing with a chance of rain tomorrow & Saturday.,America/Chicago,39.6451,-92.53777,2023-07-06,16:04:00,28.4,16.2,24.5,59.7,0.0,0.0,0.0,31.3,18.4,343.5,1017.6,13.0,,261.9,22.6,20:40:49,10.0,Clear conditions throughout the day.,Clear,,,18.4
"Andes, Colombia",Similar temperatures continuing with a chance of rain multiple days.,America/Bogota,5.6563,-75.8782,2023-07-06,16:07:00,24.2,14.0,19.5,89.0,18.7,0.0,0.0,10.4,25.9,205.0,1019.8,84.0,,233.7,20.1,18:21:26,30.0,Partly cloudy throughout the day with storms possible.,"Rain, Partially cloudy",,,25.9
"Andamooka, SA 5722, Australia",Similar temperatures continuing with no rain expected.,Australia/Adelaide,-30.45408,137.1618,2023-07-07,06:30:00,16.2,8.8,5.0,60.5,0.0,0.0,0.0,45.7,25.9,281.2,1020.1,0.4,,149.6,13.0,17:33:54,10.0,Clear conditions throughout the day.,Clear,,,25.9
"Polwatta, Namal Oya III, Eastern, Sri Lanka",Similar temperatures continuing with a chance of rain tomorrow.,Asia/Colombo,7.23268,81.5696,2023-07-07,03:00:00,36.6,23.0,23.4,62.0,0.4,0.0,0.0,18.7,10.8,300.6,1009.3,91.4,,187.1,16.2,18:24:23,10.0,Cloudy skies throughout the day with late afternoon rain.,"Rain, Overcast",,,10.8
"Kodiak, AK, United States","Similar temperatures continuing with a chance of rain tomorrow, Monday & Tuesday.",America/Anchorage,57.7952,-152.395,2023-07-06,13:15:00,13.8,8.6,14.0,90.5,1.3,0.0,0.0,26.3,18.7,140.1,1017.0,81.1,,179.2,15.5,23:09:07,10.0,Partly cloudy throughout the day with early morning rain.,"Rain, Partially cloudy",,,18.7
"Addison, TX, United States",Similar temperatures continuing with no rain expected.,America/Chicago,32.95399,-96.818,2023-07-06,16:15:00,34.8,27.1,36.1,60.4,1.9,0.0,0.0,33.5,16.6,174.0,1014.0,54.2,,187.2,16.2,20:39:17,60.0,Partly cloudy throughout the day.,Partially cloudy,,,16.6
"Privada Municipal, De la Azalea, 45150 Zapopan, JAL, México",Similar temperatures continuing with a chance of rain multiple days.,America/Mexico_City,20.73531,-103.38524,2023-07-06,15:08:00,31.8,16.4,22.0,69.4,3.4,0.0,0.0,33.1,15.8,234.3,1012.4,58.9,,277.3,23.9,19:38:37,10.0,Partly cloudy throughout the day with early morning rain.,"Rain, Partially cloudy",,,15.8
"Ardabil, Iran",Cooling down with no rain expected.,Asia/Tehran,38.2445,48.2955,2023-07-07,00:30:00,26.8,15.1,15.1,46.8,0.0,0.0,0.0,15.5,18.4,68.5,1013.8,2.1,,357.3,30.7,19:43:05,10.0,Clear conditions throughout the day.,Clear,,,18.4
"Andrews Ln, Colorado Springs, CO 80916, United States","Similar temperatures continuing with a chance of rain tomorrow, Saturday & Sunday.",America/Denver,38.82802,-104.69384,2023-07-06,15:15:00,25.6,13.9,20.8,82.9,1.791,0.0,0.0,35.3,24.1,140.8,1013.9,87.0,,163.3,14.1,20:26:56,60.0,Partly cloudy throughout the day with storms possible.,"Rain, Partially cloudy",,,24.1
"Leuchars, St Andrews, Scotland, United Kingdom",Similar temperatures continuing with a chance of rain multiple days.,Europe/London,56.38263,-2.88728,2023-07-06,21:50:00,18.0,9.9,14.0,77.0,5.1,0.0,0.0,41.8,24.0,213.0,1008.6,82.1,,100.9,8.6,22:00:19,10.0,Partly cloudy throughout the day with rain.,"Rain, Partially cloudy",,,24.0
"Alldays, Limpopo, South Africa",Cooling down with no rain expected.,Africa/Johannesburg,-22.68239,29.10171,2023-07-06,23:00:00,22.1,10.6,13.1,58.6,0.0,0.0,0.0,31.0,15.5,84.2,1027.0,0.0,,187.9,16.3,17:32:08,10.0,Clear conditions throughout the day.,Clear,,,15.5
"San Andrés, Colombia",Similar temperatures continuing with a chance of rain multiple days.,America/Bogota,12.5852,-81.6961,2023-07-06,15:00:00,30.0,26.0,27.0,83.0,21.6,0.0,,36.4,31.7,75.1,1010.2,56.1,,295.9,25.4,18:56:42,60.0,Becoming cloudy in the afternoon with storms possible.,"Rain, Partially cloudy",,,31.7
"Aek Godang Kel., Hulu Sihapas, Padang Lawas Utara, Indonesia",Similar temperatures continuing with a chance of rain tomorrow & Sunday.,Asia/Jakarta,1.40777,99.42228,2023-07-07,04:00:00,29.9,20.7,21.0,86.6,11.6,0.0,0.0,10.1,7.2,275.5,1011.8,49.1,,244.1,21.0,18:33:11,60.0,Partly cloudy throughout the day with storms possible.,"Rain, Partially cloudy",,,7.2
"Abéché, Kachimel-Abéché, Ouaddaï, Tchad",Similar temperatures continuing with a chance of rain multiple days.,Africa/Ndjamena,13.824,20.8314,2023-07-06,16:00:00,37.1,25.3,36.0,47.9,1.2,0.0,0.0,56.5,54.4,160.2,1010.4,59.3,,258.8,22.5,18:08:47,10.0,Becoming cloudy in the afternoon with rain.,"Rain, Partially cloudy",,,54.4
"Aseki Ave, Glenfield NSW 2167, Australia",Similar temperatures continuing with no rain expected.,Australia/Sydney,-33.9813,150.89176,2023-07-07,07:05:00,15.6,8.1,3.0,62.8,0.0,0.0,0.0,45.0,22.7,277.4,1011.6,20.2,,133.0,11.6,17:00:40,10.0,Partly cloudy throughout the day.,Partially cloudy,,,22.7
"Albert Lea, MN, United States",Similar temperatures continuing with no rain expected.,America/Chicago,43.64733,-93.36871,2023-07-06,16:05:00,22.8,10.5,22.9,62.6,0.0,0.0,0.0,25.9,14.5,325.8,1018.8,24.7,,302.5,26.2,20:57:28,10.0,Partly cloudy throughout the day.,Partially cloudy,,,14.5
"عيون العتروس, الحوض الغربي, موريتانيا",Similar temperatures continuing with no rain expected.,Africa/Nouakchott,16.61754,-9.42451,2023-07-06,21:00:00,38.8,28.6,37.7,35.8,0.1,0.0,0.0,43.9,36.4,240.2,1009.2,40.0,,303.2,26.2,19:14:55,30.0,Partly cloudy throughout the day with storms possible.,"Rain, Partially cloudy",,,36.4
"Сочи, Южный федеральный округ, Россия",Similar temperatures continuing with a chance of rain multiple days.,Europe/Moscow,43.6171,39.7245,2023-07-07,00:00:00,30.0,24.1,23.0,71.6,0.7,0.0,0.0,30.2,14.4,112.8,1007.3,65.6,,304.4,26.4,20:04:45,10.0,Partly cloudy throughout the day with late afternoon rain.,"Rain, Partially cloudy",,,14.4
"Allakaket, AK, United States",Similar temperatures continuing with a chance of rain multiple days.,America/Anchorage,66.56385,-152.65204,2023-07-06,13:00:00,14.6,11.2,14.2,94.4,3.358,0.0,0.0,12.6,6.3,96.1,1015.1,98.1,,48.3,4.0,00:00:00,10.0,Cloudy skies throughout the day with rain.,"Rain, Overcast",Special Weather Statement,"...Rising Rivers Through the Weekend...
Numerous rain showers through Saturday will cause rises in creeks
and rivers in the Western and Central Brooks Range through the
weekend. Additional rainfall of 1 to 2 inches is expected over
the Western and Central Brooks range through Saturday.
People in the Western and Central Brooks range and along
waterways north and west of Galena should should remain alert for
the possibility of rising water levels through the weekend.",6.3
"الاسكندرية, مصر",Similar temperatures continuing with no rain expected.,Africa/Cairo,31.2105,29.9125,2023-07-07,23:00:00,30.5,23.9,25.9,75.7,0.0,0.0,0.0,39.2,19.4,296.1,1010.2,45.7,,334.7,28.9,20:07:58,10.0,Partly cloudy throughout the day.,Partially cloudy,,,19.4
"Akureyri, Akureyrarkaupstaður, Ísland",Cooling down with a chance of rain Thursday.,Atlantic/Reykjavik,65.695,-18.1208,2023-07-06,21:00:00,11.0,6.0,9.9,85.4,0.1,0.0,4.5,20.9,18.4,351.3,1015.8,88.6,,199.7,17.0,00:13:23,10.0,Partly cloudy throughout the day with afternoon rain.,"Rain, Partially cloudy",,,18.4
"San Rafael, Cartago, Costa Rica",Similar temperatures continuing with a chance of rain multiple days.,America/Costa_Rica,9.86787,-83.9033,2023-07-06,15:10:00,27.0,15.3,21.8,81.3,8.9,0.0,0.0,7.9,16.3,328.6,1015.7,81.2,,237.7,20.6,18:00:45,30.0,Partly cloudy throughout the day with storms possible.,"Rain, Partially cloudy",,,16.3
"Port Alfred, Eastern Cape, South Africa",Similar temperatures continuing with a chance of rain Sunday & Monday.,Africa/Johannesburg,-33.5882,26.8932,2023-07-06,23:00:00,19.1,9.7,15.9,57.3,0.0,0.0,0.0,30.6,22.7,15.5,1022.5,47.8,,120.6,10.5,17:17:17,10.0,Becoming cloudy in the afternoon.,Partially cloudy,,,22.7
"Airfield Dr, United States Air Force Academy, CO 80840, United States","Similar temperatures continuing with a chance of rain tomorrow, Saturday & Sunday.",America/Denver,38.96408,-104.81457,2023-07-06,15:15:00,25.0,13.7,16.9,85.5,1.899,0.0,0.0,38.9,20.5,154.8,1013.0,85.7,,158.1,13.8,20:27:50,60.0,Partly cloudy throughout the day with storms possible.,"Rain, Partially cloudy",,,20.5
"Amalfi, Campania, Italia",Similar temperatures continuing with no rain expected.,Europe/Rome,40.6339,14.6032,2023-07-06,23:00:00,27.7,21.7,23.9,76.5,0.0,0.0,0.0,21.6,13.3,255.3,1016.0,29.7,,286.5,24.6,20:35:27,10.0,Partly cloudy throughout the day.,Partially cloudy,,,13.3
"Kondavattavan, Kotavehera, Eastern, Sri Lanka",Similar temperatures continuing with no rain expected.,Asia/Colombo,7.27144,81.62874,2023-07-07,03:00:00,34.4,24.8,25.4,64.2,0.3,0.0,0.0,20.9,20.5,126.7,1009.1,92.3,,201.4,17.6,18:24:13,30.0,Cloudy skies throughout the day with storms possible.,Overcast,,,20.5
"Alta Floresta, MT, Brasil",Similar temperatures continuing with no rain expected.,America/Cuiaba,-9.87667,-56.0861,2023-07-06,16:00:00,36.0,18.2,34.0,49.8,0.0,0.0,0.0,17.3,18.4,107.8,1012.7,24.4,,240.8,20.6,17:36:11,10.0,Becoming cloudy in the afternoon.,Partially cloudy,,,18.4
"Afton Run, Kannapolis, NC, United States",Similar temperatures continuing with a chance of rain multiple days.,America/New_York,35.43191,-80.67647,2023-07-06,17:02:00,32.0,21.0,31.4,75.9,1.163,0.0,0.0,11.2,11.0,287.0,1014.7,50.8,,255.0,22.1,20:41:12,30.0,Partly cloudy throughout the day with storms possible.,"Rain, Partially cloudy",,,11.0
"Afore, Northern (Oro) Province, Papua New Guinea",Similar temperatures continuing with a chance of rain multiple days.,Pacific/Port_Moresby,-9.08851,148.52426,2023-07-07,07:00:00,26.2,22.0,22.1,93.2,21.4,0.0,0.0,11.2,7.2,215.6,1011.8,96.3,,143.7,12.3,17:59:11,60.0,Cloudy skies throughout the day with storms possible.,"Rain, Overcast",,,7.2
"Zarafshan Ko'Chasi, Toshkent, O'zbekiston",Similar temperatures continuing with no rain expected.,Asia/Tashkent,41.3123,69.2742,2023-07-07,02:00:00,36.2,22.0,23.0,28.6,0.1,0.0,0.0,29.9,25.9,357.0,1006.2,47.2,,340.4,29.2,19:58:42,10.0,Becoming cloudy in the afternoon.,Partially cloudy,,,25.9
"Abutara, Dinhata-II Sub-District, WB, India",Similar temperatures continuing with a chance of rain multiple days.,Asia/Kolkata,26.06384,89.52859,2023-07-07,03:00:00,30.9,25.9,26.1,85.0,33.2,0.0,0.0,41.0,21.2,150.9,1004.9,90.8,,205.8,17.7,18:27:51,30.0,Cloudy skies throughout the day with storms possible.,"Rain, Overcast",,,21.2
"Dallas, TX, United States",Similar temperatures continuing with no rain expected.,America/Chicago,32.7782,-96.7951,2023-07-06,16:20:00,34.4,26.4,35.7,62.4,2.7,0.0,0.0,33.5,16.6,175.5,1014.1,43.3,,260.0,22.4,20:38:45,60.0,Partly cloudy throughout the day.,Partially cloudy,,,16.6
"Afyon Caddesi, 03500, Hisar, Sandıklı, Türkiye","Similar temperatures continuing with a chance of rain today, tomorrow & Sunday.",Europe/Istanbul,38.4941,30.2564,2023-07-07,23:50:00,29.8,18.0,22.8,56.6,0.0,0.0,0.0,32.0,17.6,354.6,1010.5,37.5,,331.8,28.4,20:25:58,10.0,Partly cloudy throughout the day with a chance of rain.,"Rain, Partially cloudy",,,17.6
"Sabzevar, Iran, Iran",Similar temperatures continuing with no rain expected.,Asia/Tehran,36.2163,57.6651,2023-07-07,18:30:00,33.2,22.9,32.0,21.1,0.0,0.0,0.0,46.4,34.2,32.2,1010.9,14.8,,343.7,29.6,18:59:51,10.0,Clear conditions throughout the day.,Clear,,,34.2
"أكادير, سوس - ماسة, المغرب",Warming up with no rain expected.,Africa/Casablanca,30.4202,-9.60394,2023-07-06,22:00:00,30.0,20.0,22.0,79.1,0.0,0.0,0.0,25.9,29.5,236.8,1012.5,57.8,,355.3,30.7,20:44:17,10.0,Partly cloudy throughout the day.,Partially cloudy,,,29.5
"Augsburg, Bayern, Deutschland",Similar temperatures continuing with a chance of rain Sunday & Monday.,Europe/Berlin,48.3703,10.8979,2023-07-06,22:50:00,24.0,9.0,13.4,67.3,0.0,0.0,0.0,16.6,9.5,63.5,1018.8,68.7,,270.1,23.5,21:19:25,10.0,Partly cloudy throughout the day.,Partially cloudy,,,9.5
"Allegheny, Pittsburgh, PA, United States","Similar temperatures continuing with a chance of rain Saturday, Sunday & Monday.",America/New_York,40.4508,-80.0162,2023-07-06,17:10:00,32.0,19.6,32.2,67.1,0.8,0.0,0.0,27.7,16.4,209.6,1013.2,30.7,,279.0,24.1,20:53:16,30.0,Partly cloudy throughout the day with storms possible.,Partially cloudy,,,16.4
"Anggi, Pegunungan Arfak, Indonesia",Similar temperatures continuing with a chance of rain multiple days.,Asia/Jayapura,-1.32467,133.91307,2023-07-07,06:00:00,20.8,14.4,15.0,91.3,26.8,0.0,0.0,5.0,7.9,236.7,1014.0,98.4,,152.8,13.3,18:10:39,30.0,Cloudy skies throughout the day with storms possible.,"Rain, Overcast",,,7.9
"Wangerooge, Niedersachsen, Deutschland",Similar temperatures continuing with a chance of rain multiple days.,Europe/Berlin,53.7912,7.89949,2023-07-06,23:00:00,18.9,13.2,15.6,75.1,0.7,0.0,0.0,55.4,34.2,254.7,1015.6,59.2,,327.0,28.3,21:59:42,10.0,Partly cloudy throughout the day with rain clearing later.,"Rain, Partially cloudy",,,34.2
"La Garenne, Saint-Langis-lès-Mortagne, Normandie, France","Similar temperatures continuing with a chance of rain tomorrow, Saturday & Sunday.",Europe/Paris,48.4861,0.52248,2023-07-06,23:00:00,26.5,10.5,21.0,58.8,0.0,0.0,0.0,21.2,11.2,160.5,1016.9,63.0,,265.3,22.9,22:01:26,10.0,Partly cloudy throughout the day.,Partially cloudy,,,11.2
"Angoram, East Sepik Province, Papua New Guinea",Similar temperatures continuing with a chance of rain multiple days.,Pacific/Port_Moresby,-3.94253,144.08743,2023-07-07,07:00:00,28.6,23.2,23.5,94.2,12.6,0.0,0.0,16.9,5.4,21.8,1009.4,93.4,,177.1,15.2,18:25:35,60.0,Cloudy skies throughout the day with storms possible.,"Rain, Overcast",,,5.4
"Ängelholm, Skåne län, Sverige","Similar temperatures continuing with a chance of rain Tuesday, Wednesday & Thursday.",Europe/Stockholm,56.2427,12.8628,2023-07-06,23:15:00,18.9,13.0,16.0,78.5,0.4,0.0,0.0,53.6,38.1,232.8,1010.2,84.3,,252.0,21.8,21:56:19,10.0,Partly cloudy throughout the day with a chance of rain throughout the day.,"Rain, Partially cloudy",,,38.1
"Wageningen, Gelderland, Nederland",Cooling down with a chance of rain multiple days.,Europe/Amsterdam,51.9669,5.66229,2023-07-06,23:01:00,22.0,11.3,14.8,73.9,0.0,0.0,0.0,27.4,17.7,217.5,1016.6,83.4,,220.9,19.1,21:58:06,10.0,Partly cloudy throughout the day.,Partially cloudy,,,17.7
"Asuni, Sardegna, Italia",Similar temperatures continuing with no rain expected.,Europe/Rome,39.87234,8.9467,2023-07-06,22:55:00,32.4,20.9,25.1,63.9,0.0,0.0,0.0,27.7,19.7,167.8,1014.5,26.3,,322.5,27.9,20:55:39,10.0,Partly cloudy throughout the day.,Partially cloudy,Yellow High-temperature Warning,"Moderate intensity weather phenomena expected
 (DISCLAIMER: ""Information provided on METEOALARM for Italy regard only the intensity and recurrence of the phenomena, further details can be found at www.meteoam.it. METEOALARM information do not provide the assessment of impact on the territory and they do not represent the Official Alerts messages that are issued by the National Civil Protection Service https://www.protezionecivile.gov.it"")",19.7
"Kagua, Southern Highlands Province, Papua New Guinea",Similar temperatures continuing with a chance of rain multiple days.,Pacific/Port_Moresby,-6.40191,143.85281,2023-07-07,06:00:00,21.4,16.8,16.0,95.8,12.2,0.0,0.0,6.5,5.8,263.7,1013.3,96.4,,169.1,14.7,18:22:25,10.0,Cloudy skies throughout the day with a chance of rain throughout the day.,"Rain, Overcast",,,5.8
"Angoon, AK, United States",Similar temperatures continuing with no rain expected.,America/Juneau,57.50252,-134.58224,2023-07-06,13:20:00,19.7,11.2,16.9,73.8,0.0,0.0,0.0,40.7,11.2,316.4,1018.6,1.3,,326.5,28.5,21:55:30,10.0,Clear conditions throughout the day.,Clear,Special Weather Statement,"...Warming Temperatures through Sunday...
There is a high potential for near record high temperatures
soaring into the upper 70s and 80s throughout the Panhandle
starting Thursday and continuing through Sunday. Friday will be
the warmest day with a greater than 80 percent chance of communities
seeing greater than 75 degrees. Warmest temperatures will occur
across the far southern Panhandle and communities located further
from coastal waters. There is a greater than 90 percent chance
that far southern communities such as Ketchikan and Hyder will
see temperatures greater than 80 degrees.
There will be some variability in high temperatures due to local
afternoon seabreezes and any low stratus that forms during the
overnight hours along coastal communities.
Remember, as temperatures warm and fuels become dry, there will
be an increased fire risk. To minimize impacts of the heat wave,
locate fans for cooling; wear light- colored and loose fitting
clothes; drink plenty of fluids, apply sun protection, and take
breaks if you must be outdoors for extended periods; do not leave
young children and pets unattended in closed vehicles; and plan to
check on the elderly, and neighbors who could be more vulnerable.",11.2
"Málaga, Andalucía, España",Warming up with no rain expected.,Europe/Madrid,36.7185,-4.41965,2023-07-06,23:00:00,29.0,23.9,25.1,78.3,0.0,0.0,0.0,20.2,18.3,133.5,1012.9,43.3,,397.6,34.1,21:39:46,5.0,Partly cloudy throughout the day.,Partially cloudy,,,18.3
"Augsburg, Bayern, Deutschland",Similar temperatures continuing with a chance of rain Sunday & Monday.,Europe/Berlin,48.3703,10.8979,2023-07-06,22:50:00,24.0,9.0,13.4,67.3,0.0,0.0,0.0,16.6,9.5,63.5,1018.8,68.7,,270.1,23.5,21:19:25,10.0,Partly cloudy throughout the day.,Partially cloudy,,,9.5
"Ciudad del Este, Paraguay",Cooling down with a chance of rain Saturday & Wednesday.,America/Asuncion,-25.4941,-54.6761,2023-07-06,17:00:00,25.3,15.3,21.6,70.8,0.0,0.0,0.0,44.6,27.0,42.6,1014.4,16.7,,124.2,10.7,17:01:42,10.0,Clear conditions throughout the day.,Clear,,,27.0
"Aguascalientes, Ags, México",Similar temperatures continuing with a chance of rain multiple days.,America/Mexico_City,21.8812,-102.296,2023-07-06,14:43:00,29.3,16.2,27.0,44.7,0.0,0.0,0.0,40.0,33.5,67.6,1012.7,36.5,,343.4,29.5,19:36:31,10.0,Partly cloudy throughout the day.,Partially cloudy,,,33.5
"Acarigua, Páez, Portuguesa, República Bolivariana De Venezuela",Similar temperatures continuing with a chance of rain multiple days.,America/Caracas,9.55814,-69.205,2023-07-06,17:00:00,29.1,21.6,31.2,74.7,0.6,0.0,0.0,10.4,9.0,261.7,1013.5,75.5,,279.6,24.3,19:01:25,30.0,Partly cloudy throughout the day with storms possible.,"Rain, Partially cloudy",,,9.0
"Agnew, Santa Clara, CA, United States",Warming up with no rain expected.,America/Los_Angeles,37.3947,-121.958,2023-07-06,14:15:00,23.4,14.4,22.2,71.2,0.0,0.0,0.0,37.1,25.9,344.9,1012.8,46.3,,341.3,29.3,20:31:46,10.0,Clearing in the afternoon.,Partially cloudy,,,25.9
"Aggeneys, Northern Cape, South Africa",Similar temperatures continuing with no rain expected.,Africa/Johannesburg,-29.24771,18.84221,2023-07-06,23:00:00,22.8,11.8,16.9,21.2,0.0,0.0,0.0,35.3,25.2,24.0,1020.8,80.8,,153.5,13.3,17:59:34,10.0,Partly cloudy throughout the day.,Partially cloudy,,,25.2
"Executive Airport Dr, Ardmore, OK 73401, United States",Similar temperatures continuing with no rain expected.,America/Chicago,34.15075,-97.12025,2023-07-06,16:19:00,32.1,21.9,33.2,72.0,1.0,0.0,0.0,29.5,22.2,99.2,1015.0,30.1,,221.0,19.1,20:43:34,30.0,Partly cloudy throughout the day.,Partially cloudy,,,22.2
"Arapahoe, WY, United States",Similar temperatures continuing with a chance of rain tomorrow.,America/Denver,42.98308,-108.52758,2023-07-06,15:15:00,28.9,9.4,28.3,60.6,0.0,0.0,0.0,42.5,27.7,7.8,1011.6,16.7,,339.6,29.4,20:55:44,10.0,Clear conditions throughout the day.,Clear,,,27.7
"Samahai, Gauriganj, UP, India",Similar temperatures continuing with a chance of rain multiple days.,Asia/Kolkata,26.4127,81.6525,2023-07-07,02:30:00,36.6,29.6,29.0,59.7,0.9,0.0,0.0,43.6,24.8,85.5,1000.0,83.2,,156.2,13.4,19:00:06,30.0,Partly cloudy throughout the day with storms possible.,Partially cloudy,,,24.8
"Municipal St, Ashland, ME 04732, United States",Similar temperatures continuing with a chance of rain multiple days.,America/New_York,46.50005,-68.36197,2023-07-06,16:15:00,32.4,17.3,32.4,74.3,6.6,0.0,0.0,16.6,16.3,218.0,1012.9,23.8,,162.5,14.5,20:28:23,30.0,Partly cloudy throughout the day.,Partially cloudy,,,16.3
"Αθήνα, Αττική, Ελληνικη Δημοκρατια",Similar temperatures continuing with no rain expected.,Europe/Athens,37.9761,23.7364,2023-07-07,00:00:00,36.0,24.5,27.3,40.2,0.0,0.0,0.0,40.7,16.2,24.6,1011.6,20.0,,350.5,30.4,20:50:31,10.0,Partly cloudy throughout the day.,Clear,,,16.2
"Alghero, Sardegna, Italia",Similar temperatures continuing with no rain expected.,Europe/Rome,40.5581,8.31863,2023-07-06,22:50:00,33.0,18.0,23.0,59.5,0.0,0.0,0.0,20.2,18.4,33.5,1014.9,13.8,,349.1,30.2,21:00:20,10.0,Clear conditions throughout the day.,Clear,Yellow High-temperature Warning,"Moderate intensity weather phenomena expected
 (DISCLAIMER: ""Information provided on METEOALARM for Italy regard only the intensity and recurrence of the phenomena, further details can be found at www.meteoam.it. METEOALARM information do not provide the assessment of impact on the territory and they do not represent the Official Alerts messages that are issued by the National Civil Protection Service https://www.protezionecivile.gov.it"")",18.4
"Ahuas, Honduras",Similar temperatures continuing with a chance of rain multiple days.,America/Tegucigalpa,15.88719,-84.75726,2023-07-06,15:00:00,28.7,27.6,28.3,79.0,20.5,0.0,,34.6,29.2,94.5,1011.7,95.4,,158.8,13.6,18:14:54,60.0,Cloudy skies throughout the day with storms possible.,"Rain, Overcast",,,29.2
"Amchitka, Adak, AK, United States","Similar temperatures continuing with a chance of rain tomorrow, Saturday & Sunday.",America/Adak,51.5329,179.002,2023-07-06,00:30:00,8.3,6.9,6.0,98.7,11.5,0.0,,47.2,29.9,238.3,1012.0,100.0,,45.2,4.0,23:22:40,10.0,Cloudy skies throughout the day with rain in the morning and afternoon.,"Rain, Overcast",,,29.9
"Rue Charif Al Idrissi, الحسيمة, المغرب",Similar temperatures continuing with a chance of rain tomorrow.,Africa/Casablanca,35.24133,-3.93507,2023-07-06,22:00:00,29.0,22.0,24.0,61.3,0.0,0.0,0.0,31.3,20.5,333.4,1012.2,30.6,,338.0,29.2,20:33:46,10.0,Clearing in the afternoon with a chance of rain.,"Rain, Partially cloudy",,,20.5
"سيح الرول, أدم, عمان",Similar temperatures continuing with no rain expected.,Asia/Muscat,21.45014,57.27456,2023-07-07,01:00:00,43.4,28.5,30.7,41.1,0.1,0.0,0.0,39.2,33.5,131.8,999.0,67.3,,323.6,27.9,18:57:21,10.0,Partly cloudy throughout the day.,Partially cloudy,,,33.5
"Ambatolahy, Miandrivazo, Madagascar",Similar temperatures continuing with no rain expected.,Indian/Antananarivo,-20.03305,45.53308,2023-07-07,00:00:00,31.7,15.9,17.3,47.8,0.0,0.0,0.0,29.5,17.6,136.7,1021.0,9.1,,194.9,16.7,17:31:49,10.0,Clear conditions throughout the day.,Clear,,,17.6
"Alliance, OH, United States",Similar temperatures continuing with a chance of rain Saturday & Sunday.,America/New_York,40.9216,-81.1058,2023-07-06,17:00:00,29.6,20.7,28.6,74.1,3.7,0.0,0.0,31.7,20.5,241.7,1012.7,49.5,,201.5,17.4,20:59:08,30.0,Partly cloudy throughout the day with storms possible.,"Rain, Partially cloudy",,,20.5
"N Anita Dr, Panama City, FL 32404, United States",Similar temperatures continuing with a chance of rain multiple days.,America/Chicago,30.15648,-85.58897,2023-07-06,16:20:00,32.2,25.2,31.6,72.6,1.147,0.0,0.0,46.4,25.5,289.5,1015.7,18.0,,319.2,27.6,19:47:34,60.0,Clear conditions throughout the day with storms possible.,Rain,Special Weather Statement,"...A strong thunderstorm will impact portions of northwestern Bay,
southeastern Walton and southwestern Washington Counties through 530
PM EDT/430 PM CDT/...
At 453 PM EDT/353 PM CDT/, Doppler radar was tracking a strong
thunderstorm 14 miles north of Panama City Beach, moving southeast at
5 mph.
HAZARD...Winds in excess of 40 mph.
SOURCE...Radar indicated.
IMPACT...Gusty winds could knock down tree limbs and blow around
unsecured objects.
Locations impacted include...
Ebro, Bruce, Pine Log and Seminole Hills.
MAX HAIL SIZE...0.00 IN
MAX WIND GUST...40 MPH",25.5
"Hairok, Thaubal, MN, Bharat",Similar temperatures continuing with a chance of rain multiple days.,Asia/Kolkata,24.58848,94.07038,2023-07-07,03:00:00,24.6,21.0,21.6,94.6,13.4,0.0,0.0,6.5,4.7,242.1,1008.8,100.0,,100.3,8.5,18:06:33,10.0,Cloudy skies throughout the day with a chance of rain throughout the day.,"Rain, Overcast",,,4.7
"Anderson St, Munford, AL 36268, United States",Similar temperatures continuing with a chance of rain multiple days.,America/Chicago,33.54145,-85.94764,2023-07-06,16:10:00,31.2,21.5,30.1,84.2,8.055,0.0,0.0,40.7,20.4,288.6,1015.2,46.7,,206.8,17.8,19:57:19,60.0,Partly cloudy throughout the day with storms possible.,"Rain, Partially cloudy",,,20.4
"Ahome, SIN, México",Similar temperatures continuing with a chance of rain multiple days.,America/Mazatlan,25.91984,-109.17434,2023-07-06,13:40:00,36.2,26.5,33.0,60.5,0.0,0.0,0.0,28.8,28.8,183.3,1009.2,29.1,,321.8,27.6,19:12:23,30.0,Partly cloudy throughout the day with storms possible.,Partially cloudy,,,28.8
"Holzhausen, Immenhausen, Hessen, Deutschland","Similar temperatures continuing with a chance of rain Sunday, Monday & Wednesday.",Europe/Berlin,51.41939,9.53732,2023-07-06,22:50:00,22.0,10.4,13.9,62.8,0.0,0.0,0.0,24.8,13.0,231.9,1017.8,49.7,,248.1,21.7,21:39:40,10.0,Partly cloudy throughout the day.,Partially cloudy,,,13.0
"Yalinga, République Centrafricaine",Similar temperatures continuing with a chance of rain multiple days.,Africa/Bangui,6.51262,23.25555,2023-07-06,22:00:00,27.6,19.8,20.1,89.8,7.6,0.0,0.0,28.4,9.0,258.8,1012.8,78.4,,163.5,14.0,17:46:20,60.0,Partly cloudy throughout the day with storms possible.,"Rain, Partially cloudy",,,9.0
"علي صبيح, جيبوتي",Similar temperatures continuing with a chance of rain multiple days.,Africa/Djibouti,11.15373,42.69802,2023-07-07,22:00:00,38.9,28.9,35.0,28.0,0.0,0.0,0.0,38.9,32.8,246.0,1005.5,50.1,,298.8,25.8,18:36:38,10.0,Partly cloudy throughout the day.,Partially cloudy,,,32.8
"Aiken, SC, United States",Similar temperatures continuing with a chance of rain multiple days.,America/New_York,33.5616,-81.7221,2023-07-06,17:00:00,32.9,22.3,34.2,78.6,0.3,0.0,0.0,27.7,15.6,270.9,1014.1,63.9,,236.4,20.3,20:40:28,30.0,Partly cloudy throughout the day.,Partially cloudy,,,15.6
"Ailigandí, Comarca Kuna Yala, Panamá",Similar temperatures continuing with a chance of rain multiple days.,America/Panama,9.11772,-77.92449,2023-07-06,16:00:00,27.6,23.0,24.9,96.3,12.4,0.0,0.0,11.2,4.3,202.3,1010.0,91.9,,108.1,9.3,18:35:33,75.0,Cloudy skies throughout the day with strong storms possible.,"Rain, Overcast",,,4.3
"Wainwright, AB, Canada",Similar temperatures continuing with a chance of rain Tuesday & Wednesday.,America/Edmonton,52.8434,-110.852,2023-07-06,15:00:00,24.6,10.2,24.6,66.1,0.0,0.0,0.0,20.2,15.8,348.4,1014.9,24.8,,313.5,27.0,21:48:52,10.0,Partly cloudy throughout the day.,Partially cloudy,,,15.8
"Atlantic, Shelburne Municipal District, NS, Canada",Similar temperatures continuing with a chance of rain Tuesday & Wednesday.,America/Halifax,43.58205,-65.34699,2023-07-06,18:00:00,22.3,12.5,15.4,94.4,0.0,0.0,0.0,24.5,22.3,251.2,1014.7,73.1,,296.0,25.7,21:05:11,10.0,Partly cloudy throughout the day.,Partially cloudy,,,22.3
"Adampur, Haryana, India","Similar temperatures continuing with a chance of rain tomorrow, Sunday & Monday.",Asia/Kolkata,29.2797,75.4795,2023-07-07,03:00:00,38.7,29.9,30.1,53.8,1.1,0.0,0.0,22.7,24.8,122.7,1000.0,59.9,,275.0,23.7,19:31:11,30.0,Partly cloudy throughout the day with storms possible.,"Rain, Partially cloudy",,,24.8
"Aripuanã, MT, Brasil",Similar temperatures continuing with no rain expected.,America/Cuiaba,-10.1834,-59.4413,2023-07-06,17:00:00,34.7,19.9,30.3,49.8,0.0,0.0,0.0,14.0,7.6,92.9,1011.6,11.3,,239.8,20.7,17:49:04,10.0,Clear conditions throughout the day.,Clear,,,7.6
"Bader Ave, Atlantic City, NJ 08401, United States",Similar temperatures continuing with a chance of rain Sunday & Monday.,America/New_York,39.36783,-74.41551,2023-07-06,17:05:00,30.9,20.7,26.7,83.0,0.0,0.0,0.0,29.5,15.9,140.9,1013.7,47.3,,285.9,24.8,20:27:29,30.0,Clearing in the afternoon.,Partially cloudy,,,15.9
"Kaiser, MO, United States",Similar temperatures continuing with a chance of rain tomorrow & Saturday.,America/Chicago,38.13967,-92.58679,2023-07-06,16:10:00,29.5,18.9,28.3,64.0,0.0,0.0,0.0,22.3,14.6,356.2,1015.6,27.8,,231.8,19.9,20:36:28,10.0,Becoming cloudy in the afternoon.,Partially cloudy,,,14.6
"Ajaccio, Corse, France",Similar temperatures continuing with no rain expected.,Europe/Paris,41.9172,8.73444,2023-07-06,23:00:00,29.0,19.0,22.0,67.7,0.1,0.0,0.0,19.1,27.6,199.8,1015.1,43.3,,345.2,29.7,21:03:08,10.0,Clearing in the afternoon with early morning rain.,"Rain, Partially cloudy",,,27.6
"الجوف, السعودية",Similar temperatures continuing with no rain expected.,Asia/Riyadh,29.99238,40.13722,2023-07-07,23:00:00,40.9,27.5,32.0,14.5,0.0,0.0,0.0,22.3,13.7,294.4,1003.8,0.0,,341.5,29.4,19:24:11,10.0,Clear conditions throughout the day.,Clear,,,13.7
"Ağrı, Türkiye","Similar temperatures continuing with a chance of rain Sunday, Monday & Tuesday.",Europe/Istanbul,39.7208,43.0508,2023-07-07,23:50:00,30.3,14.4,22.9,51.6,0.0,0.0,0.0,34.9,18.4,84.7,1008.5,18.7,,351.0,30.3,19:38:31,10.0,Clear conditions throughout the day.,Clear,,,18.4
"أكجوجت, إينشيري, موريتانيا",Similar temperatures continuing with no rain expected.,Africa/Nouakchott,19.5686,-14.9315,2023-07-06,21:00:00,46.5,27.4,29.9,35.9,0.0,0.0,0.0,39.2,31.3,190.8,1007.9,46.7,,295.0,25.5,19:42:32,15.0,Partly cloudy throughout the day.,Partially cloudy,,,31.3
"Varaak, Iran",Similar temperatures continuing with no rain expected.,Asia/Tehran,36.69788,51.10196,2023-07-07,00:30:00,28.6,23.5,24.0,60.7,0.0,0.0,0.0,9.4,10.8,31.7,1011.7,1.0,,335.2,29.0,19:27:26,10.0,Clear conditions throughout the day.,Clear,,,10.8
"Arvidsjaur, Norrbottens län, Sverige","Similar temperatures continuing with a chance of rain tomorrow, Saturday & Wednesday.",Europe/Stockholm,65.5901,19.1836,2023-07-06,22:50:00,19.0,11.0,15.0,67.4,0.0,0.0,0.0,32.4,20.5,111.6,1011.6,69.5,,201.9,17.6,23:40:47,10.0,Partly cloudy throughout the day.,Partially cloudy,,,20.5
"Punta Abreojos, Mulegé, BCS, México",Similar temperatures continuing with no rain expected.,America/Mazatlan,26.71957,-113.57127,2023-07-06,14:00:00,18.2,17.1,17.5,93.9,0.0,0.0,0.0,51.8,38.9,290.2,1011.4,57.0,,319.9,27.8,19:31:42,10.0,Partly cloudy throughout the day.,Partially cloudy,,,38.9
"Aracaju, SE, Brasil",Similar temperatures continuing with a chance of rain multiple days.,America/Maceio,-10.9092,-37.0745,2023-07-06,18:00:00,26.0,21.0,23.0,85.1,6.9,0.0,,28.1,21.2,141.1,1017.3,71.5,,152.5,13.1,17:18:21,10.0,Partly cloudy throughout the day with a chance of rain throughout the day.,"Rain, Partially cloudy",,,21.2
"Akron, OH, United States",Similar temperatures continuing with a chance of rain Saturday & Sunday.,America/New_York,41.0843,-81.5143,2023-07-06,17:10:00,30.4,21.5,28.7,73.0,12.7,0.0,0.0,31.7,22.9,222.0,1012.4,32.0,,164.5,14.2,21:01:18,30.0,Partly cloudy throughout the day with storms possible.,"Rain, Partially cloudy",,,22.9
"Akola, Maharashtra, India",Similar temperatures continuing with a chance of rain multiple days.,Asia/Kolkata,20.7064,77.0029,2023-07-07,03:00:00,32.8,26.0,26.3,71.0,10.3,0.0,0.0,38.5,28.1,265.5,1001.8,99.4,,171.6,14.6,19:06:59,10.0,Cloudy skies throughout the day with rain.,"Rain, Overcast",,,28.1
"Akieni, Léconi-Djoué, Gabon",Similar temperatures continuing with a chance of rain tomorrow & Saturday.,Africa/Libreville,-1.1741,13.87639,2023-07-06,16:00:00,32.2,21.0,27.0,65.3,0.7,0.0,0.0,26.3,11.2,218.4,1013.1,50.4,,276.2,23.8,18:10:56,10.0,Partly cloudy throughout the day with rain.,"Rain, Partially cloudy",,,11.2
"Via Kufra, 13100 Vercelli VC, Italia",Similar temperatures continuing with a chance of rain multiple days.,Europe/Rome,45.3124,8.42969,2023-07-06,23:00:00,24.2,19.3,19.8,76.0,6.4,0.0,0.0,25.2,18.6,52.4,1015.7,50.2,,237.9,20.5,21:16:35,60.0,Partly cloudy throughout the day with storms possible.,"Rain, Partially cloudy",Yellow Thunderstorm Warning,"Moderate intensity weather phenomena expected Alps
 (DISCLAIMER: ""Information provided on METEOALARM for Italy regard only the intensity and recurrence of the phenomena, further details can be found at www.meteoam.it. METEOALARM information do not provide the assessment of impact on the territory and they do not represent the Official Alerts messages that are issued by the National Civil Protection Service https://www.protezionecivile.gov.it"")",18.6
"Akiak, AK, United States",Warming up with a chance of rain multiple days.,America/Anchorage,60.9097,-161.223,2023-07-06,13:20:00,13.4,9.4,12.7,92.6,2.4,0.0,0.0,38.2,24.1,171.1,1010.8,100.0,,22.1,1.8,00:14:57,10.0,Cloudy skies throughout the day with a chance of rain throughout the day.,"Rain, Overcast",,,24.1
"Asahikawa, Japan",Similar temperatures continuing with a chance of rain multiple days.,Asia/Tokyo,43.7765,142.372,2023-07-07,20:00:00,25.0,17.0,20.0,88.1,4.7,0.0,0.0,37.8,13.3,268.1,1005.0,61.5,,211.4,18.1,19:14:51,10.0,Partly cloudy throughout the day with rain clearing later.,"Rain, Partially cloudy",,,13.3
"Akhiok, AK, United States",Warming up with a chance of rain multiple days.,America/Anchorage,56.94514,-154.17184,2023-07-06,13:20:00,12.1,8.9,12.0,94.6,1.0,0.0,0.0,40.0,17.6,136.1,1017.5,94.2,,107.3,9.1,23:09:22,10.0,Cloudy skies throughout the day with afternoon rain.,"Rain, Overcast",,,17.6
"Auckland, New Zealand",Similar temperatures continuing with a chance of rain multiple days.,Pacific/Auckland,-36.8523,174.764,2023-07-07,09:10:00,14.3,6.0,14.3,92.5,20.7,0.0,0.0,58.7,32.0,45.7,1012.3,78.2,,24.2,2.0,17:17:48,10.0,Partly cloudy throughout the day with rain.,"Rain, Partially cloudy",,,32.0
"Bakouma, République Centrafricaine",Similar temperatures continuing with a chance of rain multiple days.,Africa/Bangui,5.69795,22.78435,2023-07-06,22:00:00,25.0,19.6,19.8,93.2,11.7,0.0,0.0,16.9,6.8,267.8,1013.0,81.1,,142.4,12.3,17:46:50,60.0,Partly cloudy throughout the day with storms possible.,"Rain, Partially cloudy",,,6.8
"King Salmon, AK, United States",Warming up with a chance of rain multiple days.,America/Anchorage,58.6971,-156.702,2023-07-06,12:54:00,16.9,5.7,13.9,72.0,0.1,0.0,0.0,53.6,42.4,169.5,1012.6,66.8,,260.1,22.5,23:34:11,10.0,Partly cloudy throughout the day.,Partially cloudy,,,42.4
"Akron, CO, United States",Similar temperatures continuing with a chance of rain Saturday & Sunday.,America/Denver,40.15914,-103.21206,2023-07-06,15:20:00,22.8,12.9,21.0,88.8,4.0,0.0,0.0,48.2,31.7,142.3,1015.1,92.4,,160.5,13.7,20:25:06,60.0,Cloudy skies throughout the day with storms possible.,"Rain, Overcast",Severe Thunderstorm Watch,"SEVERE THUNDERSTORM WATCH 454 IS IN EFFECT UNTIL 1000 PM MDT
FOR THE FOLLOWING LOCATIONS
CO
.    COLORADO COUNTIES INCLUDED ARE
ADAMS                ARAPAHOE            BOULDER
BROOMFIELD           DENVER              DOUGLAS
ELBERT               JEFFERSON           LARIMER
LINCOLN              LOGAN               MORGAN
WASHINGTON           WELD",31.7
"Anaktuvuk Pass, AK, United States",Similar temperatures continuing with a chance of rain multiple days.,America/Anchorage,68.1335,-151.747,2023-07-06,13:00:00,11.8,8.1,11.8,83.1,0.2,0.0,0.0,24.5,20.5,191.3,1014.5,99.1,,87.0,7.5,00:00:00,10.0,Cloudy skies throughout the day with a chance of rain.,"Rain, Overcast",Special Weather Statement,"...Rising Rivers Through the Weekend...
Numerous rain showers through Saturday will cause rises in creeks
and rivers in the Western and Central Brooks Range through the
weekend. Additional rainfall of 1 to 2 inches is expected over
the Western and Central Brooks range through Saturday.
People in the Western and Central Brooks range and along
waterways north and west of Galena should should remain alert for
the possibility of rising water levels through the weekend.",20.5
"Astra Ksetra Kel., Menggala, Tulangbawang, Indonesia",Similar temperatures continuing with a chance of rain multiple days.,Asia/Jakarta,-4.60722,105.22461,2023-07-07,04:00:00,26.4,23.7,24.3,90.5,3.5,0.0,0.0,12.6,8.6,145.8,1011.4,97.6,,21.2,1.7,17:59:57,10.0,Cloudy skies throughout the day with a chance of rain throughout the day.,"Rain, Overcast",,,8.6
"Akure, Ondo, Nigeria",Similar temperatures continuing with a chance of rain multiple days.,Africa/Lagos,7.2481,5.17928,2023-07-06,22:00:00,29.3,21.2,22.8,86.3,2.9,0.0,0.0,14.4,6.8,236.8,1012.5,77.0,,196.3,16.8,18:59:54,60.0,Partly cloudy throughout the day with storms possible.,"Rain, Partially cloudy",,,6.8
"Akulivik, QC, Canada",Similar temperatures continuing with a chance of rain multiple days.,America/Toronto,60.80976,-78.18996,2023-07-06,17:00:00,3.5,2.4,3.2,94.6,3.1,0.0,0.0,39.2,27.0,232.1,1005.3,75.5,,110.6,9.5,22:41:57,10.0,Partly cloudy throughout the day with rain clearing later.,"Rain, Partially cloudy",,,27.0
"Agha Jari, Iran",Similar temperatures continuing with no rain expected.,Asia/Tehran,30.77215,49.77159,2023-07-07,00:30:00,47.2,33.9,38.9,13.5,0.0,0.0,0.0,26.3,18.4,167.9,997.3,1.9,,343.3,29.8,19:17:29,10.0,Clear conditions throughout the day.,Clear,,,18.4
"Ақтөбе, Қазақстан",Cooling down with no rain expected.,Asia/Aqtobe,50.2822,57.2101,2023-07-07,02:00:00,33.8,21.9,23.0,44.3,0.0,0.0,0.0,42.8,23.8,41.3,1015.2,42.9,,331.6,28.7,21:22:41,30.0,Partly cloudy throughout the day.,Partially cloudy,,,23.8
"စစ်တွေ, ရခိုင်ပြည်နယ်, MMR",Similar temperatures continuing with a chance of rain multiple days.,Asia/Yangon,20.1429,92.8991,2023-07-07,04:00:00,29.9,24.9,25.0,84.2,7.0,0.0,0.0,29.9,18.0,144.5,1008.3,87.3,,302.3,26.0,19:02:18,10.0,Partly cloudy throughout the day with a chance of rain throughout the day.,"Rain, Partially cloudy",,,18.0
"Алматы, Қазақстан",Warming up with no rain expected.,Asia/Almaty,43.2507,76.8881,2023-07-07,03:00:00,26.7,15.6,19.0,47.2,2.5,0.0,0.0,31.0,19.1,191.8,1010.3,64.3,,270.7,23.2,20:34:50,10.0,Partly cloudy throughout the day.,Partially cloudy,,,19.1
"Alicante, Comunidad Valenciana, España",Similar temperatures continuing with no rain expected.,Europe/Madrid,38.3441,-0.48043,2023-07-06,23:15:00,29.0,25.0,25.7,74.0,0.1,0.0,0.0,33.1,22.2,77.5,1013.7,50.9,,271.5,23.4,21:28:43,15.0,Partly cloudy throughout the day with afternoon rain.,"Rain, Partially cloudy",,,22.2
"Alta, Troms og Finnmark, Norge",Similar temperatures continuing with no rain expected.,Europe/Oslo,69.9684,23.2708,2023-07-06,22:50:00,14.9,10.9,10.9,74.7,0.8,0.0,0.0,38.9,33.4,0.2,1012.3,76.9,,303.2,25.9,00:00:00,10.0,Partly cloudy throughout the day with rain clearing later.,"Rain, Partially cloudy",,,33.4
الجزائر,Similar temperatures continuing with no rain expected.,Africa/Algiers,36.7716,3.05927,2023-07-06,22:00:00,31.0,22.0,26.0,77.6,0.0,0.0,0.0,38.2,22.3,2.0,1012.3,54.0,,325.3,28.0,20:10:01,15.0,Partly cloudy throughout the day.,Partially cloudy,,,22.3
"Albany, NY, United States","Similar temperatures continuing with a chance of rain tomorrow, Sunday & Monday.",America/New_York,42.6516,-73.7552,2023-07-06,17:05:00,32.8,20.9,32.8,69.0,0.3,0.0,0.0,35.3,11.3,171.1,1013.2,39.6,,198.9,17.0,20:35:31,60.0,Becoming cloudy in the afternoon.,Partially cloudy,Heat Advisory,"...HEAT ADVISORY REMAINS IN EFFECT UNTIL 8 PM EDT THIS EVENING...
* WHAT...Heat index values between 95 and 100 degrees.
* WHERE...Much of the Hudson and Mohawk River valleys in eastern
New York and eastern Windham County in southern Vermont.
* WHEN...Until 8 PM EDT this evening.
* IMPACTS...Hot temperatures and high humidity may cause heat
illnesses to occur.",11.3
"Industrial Blvd, Alice, TX 78332, United States",Similar temperatures continuing with no rain expected.,America/Chicago,27.77239,-98.07874,2023-07-06,15:56:00,32.8,25.2,25.2,85.2,17.039,0.0,0.0,39.1,28.6,128.7,1013.8,67.3,,118.7,10.2,20:32:04,30.0,Partly cloudy throughout the day with storms possible.,"Rain, Partially cloudy",,,28.6
"Alexander Bay, Northern Cape, South Africa",Warming up with a chance of rain tomorrow & Saturday.,Africa/Johannesburg,-28.6088,16.4911,2023-07-06,23:00:00,28.1,17.5,18.5,22.3,0.0,0.0,0.0,31.0,20.9,16.3,1017.3,81.0,,150.9,13.0,18:10:22,10.0,Partly cloudy throughout the day.,Partially cloudy,,,20.9
"Asela, Dodotana Sire, Ethiopia",Similar temperatures continuing with a chance of rain multiple days.,Africa/Addis_Ababa,8.25647,39.2832,2023-07-07,23:00:00,25.5,15.3,13.0,66.6,2.6,0.0,0.0,47.9,25.6,232.0,1014.3,43.1,,264.0,22.9,18:45:17,10.0,Partly cloudy throughout the day with a chance of rain throughout the day.,"Rain, Partially cloudy",,,25.6
"Albenga, Liguria, Italia",Similar temperatures continuing with a chance of rain tomorrow.,Europe/Rome,44.0487,8.21513,2023-07-06,23:03:00,27.9,19.1,20.8,77.2,0.2,0.0,0.0,25.2,21.4,53.3,1015.4,63.4,,899.7,76.8,21:12:41,30.0,Partly cloudy throughout the day with storms possible.,"Rain, Partially cloudy",,,21.4
"N White Sands Blvd, Alamogordo, NM 88310, United States",Similar temperatures continuing with a chance of rain Monday & Tuesday.,America/Denver,32.92197,-105.96054,2023-07-06,15:00:00,37.6,26.6,39.9,25.9,0.018,0.0,0.0,44.6,29.0,171.9,1011.2,8.9,,360.4,31.3,20:15:47,10.0,Clear conditions throughout the day with afternoon rain.,Rain,Heat Advisory,"...HEAT ADVISORY IN EFFECT FROM MIDNIGHT SATURDAY NIGHT TO 6 AM
MDT TUESDAY...
* WHAT...Temperatures of 104 to 107 expected.
* WHERE...Portions of south central and southwest New Mexico and
southwest Texas.
* WHEN...From midnight Saturday night to 6 AM MDT Tuesday.
* IMPACTS...Very hot temperatures will significantly increase
the potential for heat related illnesses, particularly for
those working or participating in outdoor activities.
* ADDITIONAL DETAILS...Heat products could be extended or upgraded
through next week as this period of prolonged hot temperatures
continues.",29.0
"Rue St-Louis, Acton Vale, QC J0H, Canada",Similar temperatures continuing with a chance of rain multiple days.,America/Toronto,45.62136,-72.55622,2023-07-06,17:00:00,31.4,20.8,30.7,74.8,0.0,0.0,0.0,18.7,10.1,200.9,1012.2,12.9,,325.7,28.1,20:41:39,30.0,Clear conditions throughout the day.,Clear,heat,"
The heat will continue today with humidex values near 40. In addition, nights will remain uncomfortable with minimum temperatures near 20 degrees Celsius. The humidity will linger on Friday and humidex values are expected to reach between 35 and 38.

###

Extreme heat affects everyone.

Heat warnings are issued when very high temperature or humidity conditions are expected to pose an elevated risk of heat illnesses, such as heat stroke or heat exhaustion.

Please continue to monitor alerts and forecasts issued by Environment Canada. To report severe weather, send an email to QCstorm@ec.gc.ca or tweet reports using #QCStorm.
",10.1
"Waterloo, ON, Canada",Similar temperatures continuing with a chance of rain tomorrow & Thursday.,America/Toronto,43.4634,-80.5208,2023-07-06,17:09:37,28.6,17.2,22.6,83.6,19.709,0.0,0.0,52.9,26.7,256.0,1012.4,44.1,,154.8,13.3,21:05:26,30.0,Becoming cloudy in the afternoon with storms possible.,"Rain, Partially cloudy",heat,"
A multi-day heat event continues.

Maximum temperatures:
29 to 32 degrees Celsius 
 
Minimum temperatures:
18 to 21 degrees Celsius

Humidex:
37 to 40

Timing:
Today. 

Discussion:
Areas near the lakes could be slightly cooler than regions further inland.
Conditions will start to improve from west to east this afternoon with the passage of the cold front.

Hot and humid air can also bring deteriorating air quality and can result in the Air Quality Health Index approaching the high risk category.

###

Extreme heat affects everyone.

The risks are greater for young children, pregnant women, older adults, people with chronic illnesses and people working or exercising outdoors.

Watch for the effects of heat illness: swelling, rash, cramps, fainting, heat exhaustion, heat stroke and the worsening of some health conditions.

Heat warnings are issued when very high temperature or humidity conditions are expected to pose an elevated risk of heat illnesses, such as heat stroke or heat exhaustion.

Please continue to monitor alerts and forecasts issued by Environment Canada. To report severe weather, send an email to ONstorm@ec.gc.ca or tweet reports using #ONStorm.
",26.7
"N Aleppo Ct, Casa Grande, AZ 85122, United States",Similar temperatures continuing with no rain expected.,America/Phoenix,32.98263,-111.76011,2023-07-06,14:15:00,43.4,24.4,42.9,15.4,0.0,0.0,0.0,30.8,22.3,252.9,1006.5,0.9,,336.0,28.9,19:39:07,10.0,Clear conditions throughout the day.,Clear,Excessive Heat Warning,"...EXCESSIVE HEAT WARNING NOW IN EFFECT UNTIL 8 PM MST THURSDAY...
* WHAT...Dangerously hot conditions. Afternoon temperatures 106 to
114 through the weekend, increasing to between 110 to 118 by
early to middle next week.
* WHERE...Portions of south central Arizona.
* WHEN...Until 8 PM MST Thursday.
* IMPACTS...Overexposure can cause heat cramps and heat
exhaustion to develop and, without intervention, can lead to
heat stroke.",22.3
"Rua Pinheiro Machado, Cidade Alta, Alegrete - RS, 97543-440, Brasil",Cooling down with a chance of rain multiple days.,America/Sao_Paulo,-29.79663,-55.79954,2023-07-06,18:00:00,24.0,16.3,19.1,74.8,0.5,0.0,0.0,41.8,22.7,2.3,1012.3,74.9,,73.2,6.3,17:57:00,10.0,Partly cloudy throughout the day with rain in the morning and afternoon.,"Rain, Partially cloudy",,,22.7
"Alexandra, Gauteng, South Africa",Similar temperatures continuing with no rain expected.,Africa/Johannesburg,-26.1054,28.0986,2023-07-06,23:05:00,17.1,4.2,6.2,56.8,0.0,0.0,0.0,13.0,10.7,338.9,1031.4,16.8,,130.4,11.3,17:29:15,10.0,Clear conditions throughout the day.,Clear,,,10.7
"Alenquer, PA, Brasil","Similar temperatures continuing with a chance of rain Monday, Wednesday & Thursday.",America/Santarem,-1.94092,-54.7364,2023-07-06,18:00:00,31.0,24.0,30.0,82.9,0.0,0.0,0.0,34.9,24.1,95.7,1012.0,46.0,,215.0,18.6,18:44:08,10.0,Partly cloudy throughout the day.,Partially cloudy,,,24.1
"علولا, باري, الصومال",Similar temperatures continuing with no rain expected.,Africa/Mogadishu,11.7407,50.827,2023-07-07,00:00:00,39.7,29.0,31.9,38.4,0.0,0.0,0.0,22.7,27.4,312.1,1003.5,62.9,,301.3,26.0,18:05:09,5.0,Partly cloudy throughout the day.,Partially cloudy,,,27.4
"Walla Walla, WA, United States",Similar temperatures continuing with no rain expected.,America/Los_Angeles,46.0707,-118.343,2023-07-06,14:15:00,36.7,18.3,36.0,30.6,0.0,0.0,0.0,29.5,18.1,79.5,1009.1,4.4,,330.6,28.7,20:46:31,10.0,Clear conditions throughout the day.,Clear,,,18.1
"Amarillo, TX, United States",Similar temperatures continuing with no rain expected.,America/Chicago,35.2073,-101.834,2023-07-06,16:17:00,31.7,17.4,31.6,63.9,2.326,0.0,0.0,85.1,57.7,131.1,1013.3,30.9,,305.8,26.4,21:05:13,60.0,Clearing in the afternoon with storms possible.,"Rain, Partially cloudy",,,57.7
"Ambilobe, Madagascar",Similar temperatures continuing with a chance of rain Tuesday & Wednesday.,Indian/Antananarivo,-13.19373,49.05059,2023-07-07,18:00:00,33.0,16.5,24.6,60.9,0.0,0.0,0.0,20.9,9.7,120.7,1018.1,14.7,,223.5,19.4,17:30:05,10.0,Clear conditions throughout the day.,Clear,,,9.7
"Am-Timan, Salamat, Tchad",Similar temperatures continuing with a chance of rain multiple days.,Africa/Ndjamena,11.04182,20.28036,2023-07-06,22:00:00,31.0,22.2,24.2,68.9,5.2,0.0,0.0,33.5,15.8,149.7,1011.1,84.2,,163.8,14.2,18:06:03,10.0,Partly cloudy throughout the day with rain.,"Rain, Partially cloudy",,,15.8
"Ahmedabad, GJ, India",Similar temperatures continuing with a chance of rain multiple days.,Asia/Kolkata,23.0278,72.6003,2023-07-07,02:30:00,33.2,28.6,29.0,67.9,4.0,0.0,0.0,24.1,21.2,172.9,1000.3,94.0,,228.2,19.6,19:29:13,30.0,Cloudy skies throughout the day with storms possible.,"Rain, Overcast",,,21.2
"Alto Molócuè, Zambézia, Moçambique",Cooling down with a chance of rain multiple days.,Africa/Maputo,-15.64225,37.68249,2023-07-06,23:00:00,24.1,15.6,16.2,76.7,1.2,0.0,0.0,25.9,15.1,183.9,1023.3,75.6,,136.6,11.8,17:10:57,10.0,Partly cloudy throughout the day with rain.,"Rain, Partially cloudy",,,15.1
"Wamboin, NSW 2620, Australia",Similar temperatures continuing with a chance of rain tomorrow.,Australia/Sydney,-35.25574,149.26341,2023-07-07,07:15:00,7.0,3.1,6.2,90.5,1.0,0.0,0.0,45.0,27.7,307.2,1012.0,85.7,,27.1,2.3,17:04:00,10.0,Partly cloudy throughout the day with rain clearing later.,"Rain, Partially cloudy",,,27.7
"Arba Minch', Arba Minch Zuria, Ethiopia",Similar temperatures continuing with a chance of rain multiple days.,Africa/Addis_Ababa,6.01176,37.53883,2023-07-07,00:00:00,22.2,17.0,18.6,65.0,0.8,0.0,0.0,11.9,11.9,225.6,1017.0,80.5,,139.9,12.0,18:48:27,10.0,Partly cloudy throughout the day with early morning rain.,"Rain, Partially cloudy",,,11.9
"Mataram, Indonesia","Similar temperatures continuing with a chance of rain tomorrow, Sunday & Thursday.",Asia/Makassar,-8.59485,116.105,2023-07-07,05:00:00,28.8,25.0,24.0,82.4,5.1,0.0,,45.4,38.2,137.6,1011.8,75.7,,238.3,20.6,18:09:43,10.0,Partly cloudy throughout the day with a chance of rain throughout the day.,"Rain, Partially cloudy",,,38.2
"Calle Ánimas, La Ponderosa, 34217 Durango, DGO, México",Similar temperatures continuing with a chance of rain multiple days.,America/Monterrey,24.04882,-104.65712,2023-07-06,15:20:00,27.1,16.0,25.6,66.6,1.6,0.0,0.0,25.9,17.3,14.8,1014.3,51.3,,313.3,26.8,19:50:22,30.0,Partly cloudy throughout the day with storms possible.,"Rain, Partially cloudy",,,17.3
"Puerto Armuelles, Chiriquí, Panamá",Similar temperatures continuing with a chance of rain multiple days.,America/Panama,8.28073,-82.86012,2023-07-06,16:05:00,31.0,23.0,29.0,82.2,22.5,0.0,,31.3,25.9,265.6,1009.8,70.8,,267.5,23.1,18:53:51,30.0,Becoming cloudy in the afternoon with storms possible.,"Rain, Partially cloudy",,,25.9
"عمان, الأردن",Warming up with no rain expected.,Asia/Amman,31.9518,35.9404,2023-07-07,00:00:00,28.3,17.2,21.9,59.5,0.0,0.0,0.0,46.8,24.5,285.9,1009.5,4.5,,349.5,30.3,19:45:39,10.0,Clear conditions throughout the day.,Clear,,,24.5
"Alma, MI, United States",Similar temperatures continuing with no rain expected.,America/Detroit,43.37897,-84.65703,2023-07-06,17:15:00,26.3,18.9,26.4,79.4,17.227,0.0,0.0,27.7,20.0,328.5,1012.7,81.2,,173.3,14.9,21:21:40,10.0,Partly cloudy throughout the day with a chance of rain throughout the day.,"Rain, Partially cloudy",,,20.0
"Ampanihy, Madagascar",Cooling down with no rain expected.,Indian/Antananarivo,-24.6894,44.949,2023-07-07,00:00:00,25.2,13.3,14.6,68.5,0.0,0.0,0.0,40.0,25.2,112.0,1026.0,2.2,,179.8,15.6,17:25:07,10.0,Clear conditions throughout the day.,Clear,,,25.2
"Jalan Pattimura, Ambon 97124, Indonesia",Similar temperatures continuing with a chance of rain multiple days.,Asia/Jayapura,-3.695,128.184,2023-07-07,06:00:00,28.0,24.0,29.9,85.5,16.6,0.0,,42.5,29.9,124.6,1011.6,72.6,,223.7,19.3,18:29:37,30.0,Partly cloudy throughout the day with storms possible.,"Rain, Partially cloudy",,,29.9
"Amsterdam, Noord-Holland, Nederland",Cooling down with a chance of rain multiple days.,Europe/Amsterdam,52.3699,4.90788,2023-07-06,23:09:00,20.0,12.2,16.1,71.8,0.0,0.0,0.0,38.9,27.9,234.9,1016.0,54.9,,250.0,21.8,22:03:20,10.0,Partly cloudy throughout the day.,Partially cloudy,,,27.9
"Amata, SA 0872, Australia",Similar temperatures continuing with no rain expected.,Australia/Adelaide,-26.1526,131.14616,2023-07-07,07:00:00,14.8,4.5,4.9,41.5,0.0,0.0,0.0,13.0,10.8,212.9,1023.2,0.8,,176.6,15.3,18:07:15,10.0,Clear conditions throughout the day.,Clear,,,10.8
"Amanab, West Sepik (Sandaun) Province, Papua New Guinea",Similar temperatures continuing with a chance of rain multiple days.,Pacific/Port_Moresby,-3.59078,141.17061,2023-07-07,07:00:00,30.5,21.2,21.5,89.7,10.2,0.0,0.0,7.9,6.5,15.0,1010.3,87.7,,183.0,15.9,18:37:51,30.0,Partly cloudy throughout the day with storms possible.,"Rain, Partially cloudy",,,6.5
"Амдерма, Заполярный район, Северо-Западный федеральный округ, Россия",Similar temperatures continuing with no rain expected.,Europe/Moscow,69.76229,61.66001,2023-07-07,00:00:00,9.4,0.7,9.4,96.2,0.1,0.0,,33.5,24.8,56.2,1008.3,99.7,,86.3,7.4,00:00:00,10.0,Cloudy skies throughout the day.,Overcast,,,24.8
"Municipal, Ameca, JAL, México",Similar temperatures continuing with a chance of rain multiple days.,America/Mexico_City,20.5553,-104.05099,2023-07-06,14:30:00,31.5,17.3,29.6,78.8,2.4,0.0,0.0,18.7,11.5,267.1,1012.8,74.9,,250.4,21.6,19:40:55,30.0,Partly cloudy throughout the day with storms possible.,"Rain, Partially cloudy",,,11.5
"Ammaroo, Sandover NT 0872, Australia",Similar temperatures continuing with no rain expected.,Australia/Darwin,-21.75001,135.22665,2023-07-07,07:00:00,19.5,11.4,11.9,43.9,0.0,0.0,0.0,40.3,27.0,127.1,1021.4,13.3,,193.0,16.5,17:59:42,10.0,Clear conditions throughout the day.,Clear,,,27.0
"Ambatomainty, Madagascar",Similar temperatures continuing with no rain expected.,Indian/Antananarivo,-17.72857,45.66261,2023-07-07,00:00:00,29.0,17.2,19.5,42.0,0.0,0.0,0.0,37.4,18.7,91.6,1021.4,23.8,,216.8,18.7,17:35:34,10.0,Partly cloudy throughout the day.,Partially cloudy,,,18.7
"Ardmore, OK, United States",Similar temperatures continuing with no rain expected.,America/Chicago,34.1727,-97.1288,2023-07-06,16:19:00,32.1,21.9,32.3,72.3,1.0,0.0,0.0,29.5,22.3,100.1,1015.0,29.3,,222.9,19.3,20:43:40,30.0,Partly cloudy throughout the day.,Partially cloudy,,,22.3
"Cannistown, Navan, Ireland",Similar temperatures continuing with a chance of rain multiple days.,Europe/Dublin,53.62305,-6.66705,2023-07-06,22:00:00,17.5,12.0,17.2,78.4,6.2,0.0,0.0,70.6,40.2,186.3,1007.7,88.5,,109.4,9.4,21:56:55,10.0,Partly cloudy throughout the day with a chance of rain throughout the day.,"Rain, Partially cloudy",,,40.2
"Anchorage, AK, United States",Similar temperatures continuing with a chance of rain tomorrow & Monday.,America/Anchorage,61.2175,-149.858,2023-07-06,13:20:00,14.5,11.5,13.9,92.2,10.785,0.0,0.0,11.2,9.3,331.9,1019.0,94.4,,59.2,5.1,23:33:11,10.0,Cloudy skies throughout the day with a chance of rain throughout the day.,"Rain, Overcast",,,9.3
"Regal Ln, Williamston, SC 29697, United States","Similar temperatures continuing with a chance of rain Sunday, Monday & Tuesday.",America/New_York,34.66076,-82.58936,2023-07-06,17:20:00,31.7,20.6,30.4,77.7,1.6,0.0,0.0,11.2,9.4,310.0,1014.0,40.2,,198.0,17.2,20:46:48,30.0,Partly cloudy throughout the day with storms possible.,Partially cloudy,,,9.4
"Rue Marceau, 49100 Angers, France",Similar temperatures continuing with a chance of rain tomorrow & Saturday.,Europe/Paris,47.46702,-0.55914,2023-07-06,23:18:00,27.9,9.1,19.2,63.8,0.0,0.0,0.0,20.5,12.6,134.2,1016.4,44.9,,349.4,30.3,22:01:17,10.0,Partly cloudy throughout the day.,Partially cloudy,Moderate thunderstorm warning,"Moderate damages may occur, especially in vulnerable or in exposed areas and to people who carry out weather-related activities.",12.6
"Antofagasta, República de Chile",Similar temperatures continuing with no rain expected.,America/Santiago,-23.6395,-70.396,2023-07-06,17:00:00,17.0,14.5,17.0,77.0,0.0,0.0,,23.4,20.9,201.0,1015.1,68.9,,177.5,15.2,18:08:20,10.0,Partly cloudy throughout the day.,Partially cloudy,,,20.9
"Aniak, AK, United States",Warming up with a chance of rain multiple days.,America/Anchorage,61.58158,-159.56678,2023-07-06,13:15:00,14.4,10.0,13.9,79.5,0.56,0.0,0.0,55.1,27.7,151.1,1011.6,91.5,,102.5,8.8,00:16:30,10.0,Cloudy skies throughout the day with rain in the morning and afternoon.,"Rain, Overcast",,,27.7
"Zanaga, République du Congo",Similar temperatures continuing with no rain expected.,Africa/Brazzaville,-2.84979,13.82156,2023-07-06,22:00:00,33.0,17.7,23.4,59.2,0.0,0.0,0.0,25.9,7.2,210.1,1013.1,22.8,,261.4,22.5,18:08:21,10.0,Partly cloudy throughout the day.,Partially cloudy,,,7.2
"Ankara, Türkiye",Similar temperatures continuing with no rain expected.,Europe/Istanbul,39.92109,32.85393,2023-07-07,23:50:00,30.8,19.2,25.3,47.9,0.1,0.0,0.0,36.4,19.1,337.8,1009.5,38.1,,344.0,29.8,20:19:55,10.0,Partly cloudy throughout the day.,Partially cloudy,,,19.1
"Andulo, Angola",Similar temperatures continuing with no rain expected.,Africa/Luanda,-11.48782,16.6929,2023-07-06,22:00:00,25.4,10.5,16.1,37.4,0.0,0.0,0.0,36.4,16.2,111.1,1017.9,1.5,,250.0,21.6,17:42:14,10.0,Clear conditions throughout the day.,Clear,,,16.2
"Antsirabato, Antalaha, Madagascar",Similar temperatures continuing with a chance of rain multiple days.,Indian/Antananarivo,-14.94551,50.29741,2023-07-07,00:00:00,27.0,18.2,18.7,71.2,1.0,0.0,0.0,33.5,18.7,176.5,1022.0,26.8,,196.5,17.2,17:22:01,10.0,Clearing in the afternoon with rain in the morning and afternoon.,"Rain, Partially cloudy",,,18.7
"Angoche, Nampula, Moçambique",Similar temperatures continuing with a chance of rain multiple days.,Africa/Maputo,-16.2309,39.9036,2023-07-06,23:00:00,25.4,22.7,23.9,66.8,8.4,0.0,0.0,29.5,24.5,165.2,1021.3,77.6,,119.9,10.3,17:01:00,10.0,Partly cloudy throughout the day with a chance of rain throughout the day.,"Rain, Partially cloudy",,,24.5
"Lee St, Annapolis, MD 21401, United States",Similar temperatures continuing with a chance of rain multiple days.,America/New_York,38.97997,-76.52764,2023-07-06,17:10:00,30.6,24.9,31.1,81.5,0.302,0.0,0.0,14.8,16.3,144.0,1013.0,11.2,,188.9,16.4,20:34:45,60.0,Clear conditions throughout the day with storms possible.,Rain,,,16.3
"Angola, IN, United States",Similar temperatures continuing with a chance of rain Saturday & Sunday.,America/Indiana/Indianapolis,41.63487,-84.99861,2023-07-06,17:18:00,27.9,19.5,25.4,80.2,0.506,0.0,0.0,34.9,22.1,297.6,1013.0,61.2,,200.4,17.2,21:17:02,30.0,Partly cloudy throughout the day with storms possible.,"Rain, Partially cloudy",,,22.1
"Bussels, 2310 Rijkevorsel, België",Cooling down with a chance of rain multiple days.,Europe/Brussels,51.34065,4.76286,2023-07-06,23:16:00,22.2,12.0,15.0,66.7,0.0,0.0,0.0,30.6,13.9,220.4,1017.0,80.4,,270.8,23.5,21:58:20,10.0,Partly cloudy throughout the day.,Partially cloudy,,,13.9
"Andahuaylas, Apurímac, Perú",Similar temperatures continuing with a chance of rain Wednesday & Thursday.,America/Lima,-13.6565,-73.3841,2023-07-06,16:00:00,16.7,3.1,15.8,60.9,0.0,0.0,0.0,9.7,12.2,34.4,1017.9,14.1,,254.7,22.1,17:38:50,10.0,Clear conditions throughout the day.,Clear,,,12.2
"Antigua, Islas Canarias, España",Similar temperatures continuing with no rain expected.,Atlantic/Canary,28.4235,-14.0146,2023-07-06,22:00:00,28.9,20.1,23.0,62.6,0.0,0.0,0.0,33.1,31.7,348.6,1015.7,23.1,,346.1,29.8,20:57:17,10.0,Partly cloudy throughout the day.,Partially cloudy,,,31.7
"Anvik, AK, United States",Warming up with a chance of rain multiple days.,America/Anchorage,62.65398,-160.20081,2023-07-06,13:20:00,13.3,10.3,13.1,89.4,1.8,0.0,0.0,32.4,13.2,134.6,1014.3,97.0,,50.0,4.1,00:33:48,10.0,Cloudy skies throughout the day with a chance of rain throughout the day.,"Rain, Overcast",Special Weather Statement,"...Rising Rivers Through the Weekend...
Numerous rain showers through Saturday will cause rises in creeks
and rivers in the Western and Central Brooks Range through the
weekend. Additional rainfall of 1 to 2 inches is expected over
the Western and Central Brooks range through Saturday.
People in the Western and Central Brooks range and along
waterways north and west of Galena should should remain alert for
the possibility of rising water levels through the weekend.",13.2
"Andenes, Nordland, Norge",Similar temperatures continuing with no rain expected.,Europe/Oslo,69.31199,16.11656,2023-07-06,22:50:00,12.0,9.0,9.0,88.3,0.0,0.0,0.0,33.8,22.3,326.9,1013.9,78.7,,213.0,18.4,00:00:00,10.0,Partly cloudy throughout the day.,Partially cloudy,,,22.3
"South St. Anthony, St Paul, MN, United States",Similar temperatures continuing with no rain expected.,America/Chicago,44.96725,-93.19668,2023-07-06,16:17:00,24.5,13.1,23.5,51.4,0.0,0.0,0.0,35.3,17.6,319.5,1018.1,28.8,,298.0,25.7,21:01:40,10.0,Partly cloudy throughout the day.,Partially cloudy,,,17.6
"Annaberg, Niederösterreich, Österreich",Similar temperatures continuing with a chance of rain Tuesday & Wednesday.,Europe/Vienna,47.87174,15.37577,2023-07-06,23:19:00,25.0,12.4,17.3,71.2,4.5,0.0,0.0,16.6,18.4,317.6,1019.5,65.1,,285.4,24.7,20:59:19,10.0,Clearing in the afternoon with a chance of rain throughout the day.,"Rain, Partially cloudy",,,18.4
"Nobitz, Thüringen, Deutschland",Similar temperatures continuing with a chance of rain Sunday & Monday.,Europe/Berlin,50.97621,12.48683,2023-07-06,22:50:00,24.0,10.0,15.0,55.4,0.0,0.0,0.0,23.8,16.6,254.1,1017.8,41.6,,370.5,32.1,21:25:33,10.0,Partly cloudy throughout the day.,Partially cloudy,,,16.6
"Abou Deia, Yalnas-Aboudéia, Salamat, Tchad",Similar temperatures continuing with a chance of rain multiple days.,Africa/Ndjamena,11.45176,19.28512,2023-07-06,22:00:00,32.7,22.8,27.1,63.7,4.0,0.0,0.0,36.0,26.6,198.9,1011.1,71.4,,243.6,21.0,18:10:45,10.0,Partly cloudy throughout the day with rain clearing later.,"Rain, Partially cloudy",,,26.6
"Anadolu Sokak, 26220, Zafer, Tepebaşı, Eskişehir, Türkiye",Warming up with a chance of rain tomorrow & Sunday.,Europe/Istanbul,39.79211,30.5272,2023-07-07,23:50:00,29.7,19.6,22.0,62.9,0.0,0.0,0.0,46.4,24.8,315.0,1011.1,45.5,,336.9,29.2,20:28:49,10.0,Partly cloudy throughout the day.,Partially cloudy,,,24.8
"Lima, OH, United States",Similar temperatures continuing with a chance of rain Saturday & Sunday.,America/New_York,40.74269,-84.10745,2023-07-06,17:16:00,28.9,21.2,29.3,80.8,3.093,0.0,0.0,35.4,19.8,269.0,1012.5,38.6,,224.3,19.4,21:10:34,30.0,Becoming cloudy in the afternoon with storms possible.,"Rain, Partially cloudy",,,19.8
"Ancona, Marche, Italia",Similar temperatures continuing with a chance of rain tomorrow.,Europe/Rome,43.6185,13.509,2023-07-06,23:15:00,27.0,18.0,21.1,77.6,0.0,0.0,0.0,34.9,29.0,279.6,1014.6,51.5,,201.8,17.3,20:49:57,30.0,Partly cloudy throughout the day.,Partially cloudy,,,29.0
"Komorica, Pleternica, Hrvatska","Similar temperatures continuing with a chance of rain tomorrow, Wednesday & Thursday.",Europe/Zagreb,45.2392,17.72964,2023-07-06,23:15:00,27.0,18.0,20.7,88.1,3.1,0.0,0.0,23.8,14.8,281.2,1015.9,54.9,,282.2,24.4,20:39:07,10.0,Partly cloudy throughout the day with a chance of rain throughout the day.,"Rain, Partially cloudy",Yellow thunderstorm warning,Severe thundershowers possible locally. lightning risk > 60 %,14.8
"Κάρπαθος, Νότιο Αιγαίο, Ελλάδα",Similar temperatures continuing with no rain expected.,Europe/Athens,35.5074,27.2155,2023-07-07,23:50:00,28.6,25.0,25.0,69.7,0.0,0.0,0.0,58.0,36.0,298.9,1008.2,1.2,,344.8,29.5,20:29:41,10.0,Clear conditions throughout the day.,Clear,Moderate High Temperature warning,Locally high temperatures are expected,36.0
"Paso de los Libres, Corrientes, Argentina",Cooling down with a chance of rain multiple days.,America/Argentina/Cordoba,-29.7156,-57.0952,2023-07-06,18:00:00,28.0,17.0,23.0,74.8,0.5,0.0,0.0,42.5,33.5,15.9,1010.7,84.8,,57.3,4.9,18:02:22,10.0,Partly cloudy throughout the day with rain in the morning and afternoon.,"Rain, Partially cloudy",,,33.5
"Arona, Islas Canarias, España",Similar temperatures continuing with no rain expected.,Atlantic/Canary,28.0987,-16.682,2023-07-06,22:00:00,27.6,22.0,23.7,70.3,0.0,0.0,,68.4,29.8,91.2,1016.8,75.3,,146.1,12.5,21:07:14,10.0,Partly cloudy throughout the day.,Partially cloudy,,,29.8
"East Altoona, Altoona, PA, United States",Similar temperatures continuing with a chance of rain multiple days.,America/New_York,40.55421,-78.36001,2023-07-06,16:45:00,29.7,19.0,28.3,76.4,5.646,0.0,0.0,18.4,13.1,183.2,1013.9,48.3,,239.1,20.6,20:46:58,30.0,Partly cloudy throughout the day with storms possible.,"Rain, Partially cloudy",,,13.1
"Alor Setar, Kedah, Malaysia",Similar temperatures continuing with a chance of rain multiple days.,Asia/Kuala_Lumpur,6.13164,100.389,2023-07-07,05:00:00,32.2,22.9,26.9,79.3,0.8,0.0,0.0,13.7,11.9,239.8,1010.3,47.4,,287.0,24.9,19:37:14,30.0,Partly cloudy throughout the day with storms possible.,"Rain, Partially cloudy",,,11.9
"Aosta, Valle d'Aosta, Italia",Similar temperatures continuing with a chance of rain multiple days.,Europe/Rome,45.7375,7.32072,2023-07-06,23:17:00,26.1,17.2,19.3,62.7,0.3,0.0,0.0,64.4,22.4,339.3,1016.7,52.3,,234.9,20.3,21:22:41,10.0,Partly cloudy throughout the day with rain in the morning and afternoon.,"Rain, Partially cloudy",,,22.4
"Airport Line & Centennial Rd, Bluewater, ON N0M, Canada",Similar temperatures continuing with a chance of rain tomorrow.,America/Nipigon,43.5046,-81.5387,2023-07-06,17:10:00,24.7,19.2,25.8,84.3,13.2,0.0,0.0,35.3,16.2,295.7,1012.0,66.0,,84.9,7.2,21:09:39,30.0,Partly cloudy throughout the day with storms possible.,"Rain, Partially cloudy",heat,"
A multi-day heat event continues.

Maximum temperatures:
29 to 32 degrees Celsius 
 
Minimum temperatures:
18 to 21 degrees Celsius

Humidex:
37 to 40

Timing:
Today. 
Temperatures will be several degrees cooler on Friday.

Discussion:
Areas near the lakes could be slightly cooler than regions further inland.

Hot and humid air can also bring deteriorating air quality and can result in the Air Quality Health Index approaching the high risk category.

###

Extreme heat affects everyone.

The risks are greater for young children, pregnant women, older adults, people with chronic illnesses and people working or exercising outdoors.

Watch for the effects of heat illness: swelling, rash, cramps, fainting, heat exhaustion, heat stroke and the worsening of some health conditions.

Heat warnings are issued when very high temperature or humidity conditions are expected to pose an elevated risk of heat illnesses, such as heat stroke or heat exhaustion.

Please continue to monitor alerts and forecasts issued by Environment Canada. To report severe weather, send an email to ONstorm@ec.gc.ca or tweet reports using #ONStorm.
",16.2
"Apolo, La Paz, Estado Plurinacional de Bolivia",Similar temperatures continuing with a chance of rain multiple days.,America/La_Paz,-14.71595,-68.41816,2023-07-06,17:00:00,25.8,12.4,22.8,74.8,0.1,0.0,0.0,19.1,15.8,349.0,1013.0,22.8,,229.8,19.7,18:17:06,10.0,Partly cloudy throughout the day with early morning rain.,"Rain, Partially cloudy",,,15.8
"Napa, CA, United States",Warming up with no rain expected.,America/Los_Angeles,38.5098,-122.326,2023-07-06,14:00:00,23.0,11.7,19.8,72.0,0.0,0.0,0.0,64.8,20.5,234.3,1011.5,37.1,,337.6,29.2,20:36:30,10.0,Partly cloudy throughout the day.,Partially cloudy,,,20.5
"Naples, Musina, Limpopo, South Africa",Cooling down with no rain expected.,Africa/Johannesburg,-22.40362,29.5717,2023-07-06,23:00:00,22.2,11.1,14.0,60.1,0.0,0.0,0.0,38.5,19.4,87.3,1027.0,0.6,,188.7,16.2,17:30:48,10.0,Clear conditions throughout the day.,Clear,,,19.4
"Ap Hill Dr, Bowling Green, VA 22427, United States",Similar temperatures continuing with a chance of rain multiple days.,America/New_York,38.07168,-77.32134,2023-07-06,16:33:00,31.2,21.6,28.9,80.2,17.194,0.0,0.0,27.7,14.5,99.4,1012.8,28.1,,172.3,14.8,20:35:13,60.0,Becoming cloudy in the afternoon with storms possible.,"Rain, Partially cloudy",,,14.5
"Pulan, Jakholi, UK, India",Similar temperatures continuing with a chance of rain multiple days.,Asia/Kolkata,30.42245,78.91713,2023-07-07,03:00:00,25.3,15.3,15.8,71.3,9.4,0.0,0.0,7.9,12.2,198.7,1007.9,69.1,,284.5,24.7,19:20:06,10.0,Partly cloudy throughout the day with rain.,"Rain, Partially cloudy",,,12.2
"Nampula, Moçambique",Cooling down with no rain expected.,Africa/Maputo,-15.1132,39.2578,2023-07-06,21:00:00,26.7,16.3,19.0,75.0,0.0,0.0,0.0,31.3,22.3,178.4,1022.8,73.1,,139.9,12.1,17:05:36,10.0,Partly cloudy throughout the day.,Partially cloudy,,,22.3
"Alpena, MI, United States",Similar temperatures continuing with a chance of rain Monday & Tuesday.,America/Detroit,45.0616,-83.4452,2023-07-06,17:12:00,25.5,17.3,24.2,85.8,4.078,0.0,0.0,37.1,23.7,329.7,1012.7,66.6,,209.3,18.1,21:23:02,10.0,Partly cloudy throughout the day with rain clearing later.,"Rain, Partially cloudy",,,23.7
"Asapa, Vadnagar, GJ, India",Similar temperatures continuing with a chance of rain multiple days.,Asia/Kolkata,23.87405,72.76011,2023-07-07,02:30:00,33.7,28.4,29.0,66.6,6.5,0.0,0.0,24.8,16.6,181.9,1000.5,97.4,,169.4,14.6,19:30:19,30.0,Cloudy skies throughout the day with storms possible.,"Rain, Overcast",,,16.6
"Arapiraca, AL, Brasil",Similar temperatures continuing with a chance of rain multiple days.,America/Maceio,-9.75155,-36.6602,2023-07-06,18:00:00,24.2,19.1,23.0,85.7,3.9,0.0,0.0,25.9,18.0,157.1,1017.6,85.8,,110.7,9.4,17:18:40,10.0,Partly cloudy throughout the day with rain.,"Rain, Partially cloudy",,,18.0
"April Ln, Albemarle, NC 28001, United States",Similar temperatures continuing with a chance of rain multiple days.,America/New_York,35.3246,-80.28256,2023-07-06,17:09:00,31.2,21.8,32.2,78.4,1.389,0.0,0.0,14.8,6.2,293.1,1014.0,47.2,,248.6,21.6,20:39:20,60.0,Clearing in the afternoon with storms possible.,"Rain, Partially cloudy",,,6.2
"Anápolis, GO, Brasil",Similar temperatures continuing with no rain expected.,America/Sao_Paulo,-16.3287,-48.9529,2023-07-06,18:00:00,25.1,12.1,20.3,50.1,0.0,0.0,0.0,43.2,20.0,97.5,1020.9,5.6,,223.8,19.4,17:56:20,10.0,Clear conditions throughout the day.,Clear,,,20.0
"Marion St, Prairie City, IA 50228, United States",Similar temperatures continuing with no rain expected.,America/Chicago,41.5394,-93.30673,2023-07-06,15:55:00,24.5,13.8,22.5,60.5,0.0,0.0,0.0,35.3,19.7,343.2,1018.5,11.7,,287.6,24.7,20:49:57,10.0,Clear conditions throughout the day.,Clear,,,19.7
"Apple Valley, CA, United States",Similar temperatures continuing with no rain expected.,America/Los_Angeles,34.5237,-117.216,2023-07-06,14:15:00,33.9,11.0,31.7,29.6,0.0,0.0,0.0,55.4,35.3,227.8,1011.0,1.1,,374.1,32.4,20:04:55,10.0,Clear conditions throughout the day.,Clear,,,35.3
"Alto Parnaíba, MA, Brasil",Similar temperatures continuing with no rain expected.,America/Fortaleza,-9.11051,-45.93146,2023-07-06,18:00:00,33.9,16.5,27.5,41.5,0.0,0.0,0.0,29.5,15.8,114.5,1014.6,52.6,,244.7,21.1,17:56:52,10.0,Partly cloudy throughout the day.,Partially cloudy,,,15.8
"Zapala, Neuquén, Argentina",Similar temperatures continuing with no rain expected.,America/Argentina/Salta,-38.9002,-70.0651,2023-07-06,18:10:00,7.4,1.6,7.8,60.5,0.0,0.0,0.0,31.3,20.5,300.8,1017.3,51.9,,92.4,7.8,18:31:19,10.0,Partly cloudy throughout the day.,Partially cloudy,,,20.5
"Quiché, Guatemala",Similar temperatures continuing with a chance of rain multiple days.,America/Guatemala,14.94426,-91.11079,2023-07-06,15:15:00,24.6,13.0,20.3,81.5,1.3,0.0,0.0,15.8,14.0,26.3,1017.5,61.7,,193.0,16.6,18:38:36,30.0,Partly cloudy throughout the day with storms possible.,"Rain, Partially cloudy",,,14.0
"القيصومة, حفر الباطن, السعودية",Similar temperatures continuing with no rain expected.,Asia/Riyadh,28.30278,46.11933,2023-07-07,23:00:00,44.7,30.5,36.0,9.0,0.0,0.0,0.0,26.3,24.8,328.3,1001.0,28.4,,343.9,29.6,18:56:23,10.0,Becoming cloudy in the afternoon.,Partially cloudy,,,24.8
"Calle Almería, 18320 Santa Fe (Granada), España",Similar temperatures continuing with no rain expected.,Europe/Madrid,37.21685,-3.72697,2023-07-06,23:17:00,36.0,18.1,28.5,27.4,0.0,0.0,0.0,22.7,16.6,269.8,1014.7,13.9,,323.5,28.0,21:38:25,10.0,Clear conditions throughout the day.,Clear,,,16.6
"Ariquemes, RO, Brasil",Similar temperatures continuing with no rain expected.,America/Porto_Velho,-9.91359,-63.0431,2023-07-06,17:00:00,35.4,19.5,32.7,55.9,0.0,0.0,0.0,11.5,5.8,69.2,1011.0,18.8,,239.9,20.9,18:03:57,10.0,Clear conditions throughout the day.,Clear,,,5.8
"Calle Rodríguez Ballón, 04004 Arequipa, Perú",Similar temperatures continuing with no rain expected.,America/Lima,-16.3902,-71.51994,2023-07-06,16:00:00,20.0,9.0,18.0,23.4,0.0,0.0,0.0,9.0,14.8,255.5,1020.4,9.0,,244.2,21.1,17:26:31,10.0,Clear conditions throughout the day.,Clear,,,14.8
"Sarani, MP, Bharat",Similar temperatures continuing with a chance of rain multiple days.,Asia/Kolkata,22.10721,78.17477,2023-07-07,03:00:00,28.2,22.8,23.8,86.4,29.5,0.0,0.0,25.2,15.8,306.0,1002.4,97.8,,188.9,16.4,19:05:04,30.0,Cloudy skies throughout the day with storms possible.,"Rain, Overcast",,,15.8
"Girdwood, AK, United States",Similar temperatures continuing with a chance of rain tomorrow & Thursday.,America/Anchorage,60.94104,-149.1727,2023-07-06,12:40:00,12.8,8.0,13.5,95.8,7.47,0.0,0.0,23.0,21.2,88.0,1019.8,99.3,,80.6,7.0,23:27:10,10.0,Cloudy skies throughout the day with a chance of rain throughout the day.,"Rain, Overcast",,,21.2
"Arctic Village, AK, United States",Similar temperatures continuing with a chance of rain multiple days.,America/Anchorage,68.12568,-145.54497,2023-07-06,13:20:00,19.4,11.8,19.0,55.5,0.1,0.0,0.0,23.4,16.2,179.8,1014.8,73.9,,215.3,18.3,00:00:00,10.0,Partly cloudy throughout the day.,Partially cloudy,Special Weather Statement,"...Rising Rivers Through the Weekend...
Numerous rain showers through Saturday will cause rises in creeks
and rivers in the Western and Central Brooks Range through the
weekend. Additional rainfall of 1 to 2 inches is expected over
the Western and Central Brooks range through Saturday.
People in the Western and Central Brooks range and along
waterways north and west of Galena should should remain alert for
the possibility of rising water levels through the weekend.",16.2
"Alor Malai, Kedah, Malaysia",Similar temperatures continuing with a chance of rain multiple days.,Asia/Kuala_Lumpur,6.12969,100.39945,2023-07-07,05:00:00,32.2,22.9,26.9,79.3,0.8,0.0,0.0,13.7,11.9,239.8,1010.3,47.4,,287.0,24.9,19:37:11,30.0,Partly cloudy throughout the day with storms possible.,"Rain, Partially cloudy",,,11.9
"Архангельск, Северо-Западный федеральный округ, Россия",Similar temperatures continuing with no rain expected.,Europe/Moscow,64.5384,40.5149,2023-07-07,21:00:00,16.8,13.0,0.4,79.6,0.1,0.0,0.0,25.9,13.3,314.3,1016.1,73.7,,242.8,21.0,22:44:03,10.0,Partly cloudy throughout the day.,Partially cloudy,,,13.3
"Arusha, Tanzania",Similar temperatures continuing with no rain expected.,Africa/Dar_es_Salaam,-3.36981,36.6871,2023-07-07,23:00:00,16.7,9.8,17.0,82.7,0.7,0.0,0.0,24.8,12.2,143.6,1021.7,54.8,,133.7,11.5,18:36:12,10.0,Partly cloudy throughout the day.,Partially cloudy,,,12.2
"Armidale, NSW 2350, Australia",Similar temperatures continuing with no rain expected.,Australia/Sydney,-30.5162,151.668,2023-07-07,07:15:00,10.5,2.6,3.4,73.7,0.4,0.0,0.0,58.7,29.2,275.0,1015.9,30.1,,144.3,12.5,17:05:43,10.0,Clearing in the afternoon with rain clearing later.,"Rain, Partially cloudy",,,29.2
"Stockholm, Stockholms län, Sverige","Similar temperatures continuing with a chance of rain tomorrow, Wednesday & Thursday.",Europe/Stockholm,59.3326,18.0668,2023-07-06,23:19:00,19.0,12.9,14.9,76.8,4.4,0.0,0.0,40.7,25.7,148.7,1009.7,78.2,,231.8,20.0,22:01:36,10.0,Partly cloudy throughout the day with rain clearing later.,"Rain, Partially cloudy",,,25.7
"Arboletes, Colombia",Similar temperatures continuing with a chance of rain multiple days.,America/Bogota,8.84975,-76.42612,2023-07-06,15:00:00,30.0,23.0,29.0,88.6,7.2,0.0,0.0,24.5,16.6,209.3,1009.7,88.1,,126.7,11.0,18:29:05,60.0,Partly cloudy throughout the day with storms possible.,"Rain, Partially cloudy",,,16.6
"Aradip, Kıbrıs",Similar temperatures continuing with no rain expected.,Asia/Nicosia,34.93921,33.59046,2023-07-07,00:10:00,30.5,22.9,26.3,74.7,0.0,0.0,0.0,51.5,28.1,217.8,1006.0,17.5,,353.8,30.6,20:02:40,10.0,Clear conditions throughout the day.,Clear,,,28.1
"El Troncal, 816017 Arauquita, Colombia",Similar temperatures continuing with a chance of rain multiple days.,America/Bogota,7.02255,-71.38459,2023-07-06,15:00:00,31.3,20.7,28.1,84.9,1.1,0.0,0.0,22.7,11.2,16.1,1012.4,56.1,,212.0,18.2,18:05:47,30.0,Partly cloudy throughout the day with storms possible.,"Rain, Partially cloudy",,,11.2
"Alto Río Senguer, Chubut, Argentina",Similar temperatures continuing with a chance of snow Saturday.,America/Argentina/Catamarca,-45.041,-70.8231,2023-07-06,18:00:00,4.0,-0.7,1.2,58.0,0.0,0.0,0.0,64.1,35.6,275.4,1013.7,66.9,,57.9,5.0,18:14:56,10.0,Partly cloudy throughout the day.,Partially cloudy,,,35.6
"Aragarças, GO, Brasil",Similar temperatures continuing with no rain expected.,America/Sao_Paulo,-15.9024,-52.2448,2023-07-06,18:00:00,32.0,14.7,27.0,46.9,0.0,0.0,0.0,22.3,20.5,82.3,1015.9,1.2,,220.8,19.0,18:10:16,10.0,Clear conditions throughout the day.,Clear,,,20.5
